[
  {
    "id": -1015747543,
    "date": "2023.02.06",
    "time": "17:45:12",
    "lat": 38.5915,
    "lng": 40.2987,
    "depth": 7.6,
    "MD": "-.-",
    "ML": 3.2,
    "Mw": "-.-",
    "location": "ERICEK-GENC",
    "city": "(BINGOL)"
  },
  {
    "id": -1015866579,
    "date": "2023.02.06",
    "time": "17:41:56",
    "lat": 38.1797,
    "lng": 37.7755,
    "depth": 5.5,
    "MD": "-.-",
    "ML": 4.2,
    "Mw": "4.2",
    "location": "CAVUSLU-DOGANSEHIR",
    "city": "(MALATYA)"
  },
  {
    "id": -1017475292,
    "date": "2023.02.06",
    "time": "17:29:57",
    "lat": 37.9957,
    "lng": 36.4218,
    "depth": 5,
    "MD": "-.-",
    "ML": 4.5,
    "Mw": "-.-",
    "location": "ACIELMA-GOKSUN",
    "city": "(KAHRAMANMARAS)"
  },
  {
    "id": -1017534908,
    "date": "2023.02.06",
    "time": "17:27:44",
    "lat": 36.826,
    "lng": 36.5298,
    "depth": 7.6,
    "MD": "-.-",
    "ML": 4.8,
    "Mw": "-.-",
    "location": "HASSA",
    "city": "(HATAY)"
  },
  {
    "id": -1017743417,
    "date": "2023.02.06",
    "time": "17:20:51",
    "lat": 38.241,
    "lng": 38.1558,
    "depth": 3.4,
    "MD": "-.-",
    "ML": 4.1,
    "Mw": "4.1",
    "location": "SEYITUSAGI-YESILYURT",
    "city": "(MALATYA)"
  },
  {
    "id": -1018667085,
    "date": "2023.02.06",
    "time": "17:10:09",
    "lat": 37.9993,
    "lng": 37.4345,
    "depth": 1.8,
    "MD": "-.-",
    "ML": 4.5,
    "Mw": "4.6",
    "location": "NURHAK",
    "city": "(KAHRAMANMARAS)"
  },
  {
    "id": -1019531030,
    "date": "2023.02.06",
    "time": "17:02:03",
    "lat": 38.3015,
    "lng": 37.1363,
    "depth": 5.2,
    "MD": "-.-",
    "ML": 3.3,
    "Mw": "-.-",
    "location": "DOGAN-ELBISTAN",
    "city": "(KAHRAMANMARAS)"
  },
  {
    "id": -1902208414,
    "date": "2023.02.06",
    "time": "16:59:53",
    "lat": 37.7443,
    "lng": 37.555,
    "depth": 21.5,
    "MD": "-.-",
    "ML": 3.5,
    "Mw": "-.-",
    "location": "BALKAR-GOLBASI",
    "city": "(ADIYAMAN)"
  },
  {
    "id": -1902238230,
    "date": "2023.02.06",
    "time": "16:58:49",
    "lat": 38.102,
    "lng": 36.5028,
    "depth": 5,
    "MD": "-.-",
    "ML": 4,
    "Mw": "-.-",
    "location": "MAHMUTBEY-GOKSUN",
    "city": "(KAHRAMANMARAS)"
  },
  {
    "id": -1902417104,
    "date": "2023.02.06",
    "time": "16:52:05",
    "lat": 38.3255,
    "lng": 38.1803,
    "depth": 7.1,
    "MD": "-.-",
    "ML": 3.9,
    "Mw": "-.-",
    "location": "DURULDU",
    "city": "(MALATYA)"
  },
  {
    "id": -1903280916,
    "date": "2023.02.06",
    "time": "16:44:48",
    "lat": 38.0143,
    "lng": 37.6218,
    "depth": 5,
    "MD": "-.-",
    "ML": 5.1,
    "Mw": "-.-",
    "location": "GOVDELI-DOGANSEHIR",
    "city": "(MALATYA)"
  },
  {
    "id": -1904055548,
    "date": "2023.02.06",
    "time": "16:39:24",
    "lat": 38.1595,
    "lng": 37.5413,
    "depth": 8.2,
    "MD": "-.-",
    "ML": 5.3,
    "Mw": "-.-",
    "location": "KANTARMA-ELBISTAN",
    "city": "(KAHRAMANMARAS)"
  },
  {
    "id": -1905962111,
    "date": "2023.02.06",
    "time": "16:17:43",
    "lat": 38.0483,
    "lng": 36.5193,
    "depth": 5,
    "MD": "-.-",
    "ML": 4.9,
    "Mw": "-.-",
    "location": "HACIMIRZA-GOKSUN",
    "city": "(KAHRAMANMARAS)"
  },
  {
    "id": -1905991959,
    "date": "2023.02.06",
    "time": "16:16:28",
    "lat": 38.004,
    "lng": 36.7548,
    "depth": 13.6,
    "MD": "-.-",
    "ML": 3.7,
    "Mw": "-.-",
    "location": "KINIKKOZ-GOKSUN",
    "city": "(KAHRAMANMARAS)"
  },
  {
    "id": -1906081273,
    "date": "2023.02.06",
    "time": "16:13:45",
    "lat": 38.2297,
    "lng": 38.9673,
    "depth": 5,
    "MD": "-.-",
    "ML": 4.5,
    "Mw": "-.-",
    "location": "KOCKOY-PUTURGE",
    "city": "(MALATYA)"
  },
  {
    "id": -1906915450,
    "date": "2023.02.06",
    "time": "16:06:37",
    "lat": 38.073,
    "lng": 37.4315,
    "depth": 13.6,
    "MD": "-.-",
    "ML": 4.3,
    "Mw": "-.-",
    "location": "AGCASAR-NURHAK",
    "city": "(KAHRAMANMARAS)"
  },
  {
    "id": -1907004886,
    "date": "2023.02.06",
    "time": "16:03:16",
    "lat": 38.0642,
    "lng": 37.3865,
    "depth": 5,
    "MD": "-.-",
    "ML": 4.2,
    "Mw": "-.-",
    "location": "AGCASAR-NURHAK",
    "city": "(KAHRAMANMARAS)"
  },
  {
    "id": -1907034647,
    "date": "2023.02.06",
    "time": "16:02:25",
    "lat": 37.6492,
    "lng": 37.3497,
    "depth": 9.3,
    "MD": "-.-",
    "ML": 3.6,
    "Mw": "-.-",
    "location": "BOLUKDAMLAR-CAGLAYANCERIT",
    "city": "(KAHRAMANMARAS)"
  },
  {
    "id": -1907094262,
    "date": "2023.02.06",
    "time": "16:00:13",
    "lat": 38.1665,
    "lng": 37.0397,
    "depth": 8.2,
    "MD": "-.-",
    "ML": 4.5,
    "Mw": "-.-",
    "location": "ORTAKLI-AFSIN",
    "city": "(KAHRAMANMARAS)"
  },
  {
    "id": 1505136009,
    "date": "2023.02.06",
    "time": "15:55:46",
    "lat": 38.0988,
    "lng": 36.719,
    "depth": 12.8,
    "MD": "-.-",
    "ML": 3.8,
    "Mw": "-.-",
    "location": "FINDIK-GOKSUN",
    "city": "(KAHRAMANMARAS)"
  },
  {
    "id": 1505106189,
    "date": "2023.02.06",
    "time": "15:54:38",
    "lat": 38.1908,
    "lng": 36.616,
    "depth": 5,
    "MD": "-.-",
    "ML": 4.7,
    "Mw": "4.5",
    "location": "ESENKOY-GOKSUN",
    "city": "(KAHRAMANMARAS)"
  },
  {
    "id": 1504272104,
    "date": "2023.02.06",
    "time": "15:47:59",
    "lat": 38.1552,
    "lng": 37.0305,
    "depth": 5,
    "MD": "-.-",
    "ML": 4.4,
    "Mw": "-.-",
    "location": "ORTAKLI-AFSIN",
    "city": "(KAHRAMANMARAS)"
  },
  {
    "id": 1504212420,
    "date": "2023.02.06",
    "time": "15:45:20",
    "lat": 38.077,
    "lng": 36.4602,
    "depth": 5.5,
    "MD": "-.-",
    "ML": 4.2,
    "Mw": "-.-",
    "location": "MEHMETBEY-GOKSUN",
    "city": "(KAHRAMANMARAS)"
  },
  {
    "id": 1503408038,
    "date": "2023.02.06",
    "time": "15:39:16",
    "lat": 38.2888,
    "lng": 38.2163,
    "depth": 5,
    "MD": "-.-",
    "ML": 4,
    "Mw": "-.-",
    "location": "IKIZCE-YESILYURT",
    "city": "(MALATYA)"
  },
  {
    "id": 1503318756,
    "date": "2023.02.06",
    "time": "15:36:44",
    "lat": 38.0367,
    "lng": 36.5625,
    "depth": 2.1,
    "MD": "-.-",
    "ML": 4.6,
    "Mw": "-.-",
    "location": "YANTEPE-GOKSUN",
    "city": "(KAHRAMANMARAS)"
  },
  {
    "id": 1503318724,
    "date": "2023.02.06",
    "time": "15:36:33",
    "lat": 37.8063,
    "lng": 37.7952,
    "depth": 21.1,
    "MD": "-.-",
    "ML": 4.8,
    "Mw": "-.-",
    "location": "AKCABEL-GOLBASI",
    "city": "(ADIYAMAN)"
  },
  {
    "id": 1503259172,
    "date": "2023.02.06",
    "time": "15:34:42",
    "lat": 38.2663,
    "lng": 38.2253,
    "depth": 4.2,
    "MD": "-.-",
    "ML": 4.8,
    "Mw": "-.-",
    "location": "GUNDUZBEY-YESILYURT",
    "city": "(MALATYA)"
  },
  {
    "id": 1503139976,
    "date": "2023.02.06",
    "time": "15:30:31",
    "lat": 38.117,
    "lng": 36.7867,
    "depth": 5.6,
    "MD": "-.-",
    "ML": 3.9,
    "Mw": "-.-",
    "location": "KORKMAZ-GOKSUN",
    "city": "(KAHRAMANMARAS)"
  },
  {
    "id": 1502425028,
    "date": "2023.02.06",
    "time": "15:27:46",
    "lat": 37.1333,
    "lng": 36.9713,
    "depth": 7.8,
    "MD": "-.-",
    "ML": 3.9,
    "Mw": "-.-",
    "location": "IKIZKUYU-NURDAGI",
    "city": "(GAZIANTEP)"
  },
  {
    "id": 1502246191,
    "date": "2023.02.06",
    "time": "15:21:18",
    "lat": 38.0947,
    "lng": 36.4038,
    "depth": 5,
    "MD": "-.-",
    "ML": 4.3,
    "Mw": "-.-",
    "location": "SOGUKPINAR-GOKSUN",
    "city": "(KAHRAMANMARAS)"
  },
  {
    "id": 1501560991,
    "date": "2023.02.06",
    "time": "15:19:11",
    "lat": 37.9183,
    "lng": 37.4562,
    "depth": 15.9,
    "MD": "-.-",
    "ML": 4,
    "Mw": "-.-",
    "location": "BICIN-NURHAK",
    "city": "(KAHRAMANMARAS)"
  },
  {
    "id": 1501382344,
    "date": "2023.02.06",
    "time": "15:13:47",
    "lat": 37.9892,
    "lng": 37.4735,
    "depth": 8.1,
    "MD": "-.-",
    "ML": 4.9,
    "Mw": "-.-",
    "location": "NURHAK",
    "city": "(KAHRAMANMARAS)"
  },
  {
    "id": 1500577952,
    "date": "2023.02.06",
    "time": "15:07:33",
    "lat": 38.04,
    "lng": 36.3845,
    "depth": 4.5,
    "MD": "-.-",
    "ML": 4.3,
    "Mw": "4.3",
    "location": "SOGUKPINAR-GOKSUN",
    "city": "(KAHRAMANMARAS)"
  },
  {
    "id": 1500428933,
    "date": "2023.02.06",
    "time": "15:02:11",
    "lat": 38.0697,
    "lng": 36.4702,
    "depth": 5,
    "MD": "-.-",
    "ML": 5.9,
    "Mw": "5.8",
    "location": "MEHMETBEY-GOKSUN",
    "city": "(KAHRAMANMARAS)"
  },
  {
    "id": 617721670,
    "date": "2023.02.06",
    "time": "14:58:36",
    "lat": 38.0793,
    "lng": 37.7053,
    "depth": 6.1,
    "MD": "-.-",
    "ML": 4.9,
    "Mw": "-.-",
    "location": "BEGRE-DOGANSEHIR",
    "city": "(MALATYA)"
  },
  {
    "id": 617632360,
    "date": "2023.02.06",
    "time": "14:55:57",
    "lat": 38.0302,
    "lng": 36.5997,
    "depth": 6.6,
    "MD": "-.-",
    "ML": 4.3,
    "Mw": "4.3",
    "location": "SARAYCIK-GOKSUN",
    "city": "(KAHRAMANMARAS)"
  },
  {
    "id": 617513074,
    "date": "2023.02.06",
    "time": "14:51:19",
    "lat": 38.19,
    "lng": 37.8257,
    "depth": 5,
    "MD": "-.-",
    "ML": 4.3,
    "Mw": "-.-",
    "location": "POLAT-DOGANSEHIR",
    "city": "(MALATYA)"
  },
  {
    "id": 617483247,
    "date": "2023.02.06",
    "time": "14:50:04",
    "lat": 38.0483,
    "lng": 36.361,
    "depth": 7.3,
    "MD": "-.-",
    "ML": 4.5,
    "Mw": "-.-",
    "location": "SOGUKPINAR-GOKSUN",
    "city": "(KAHRAMANMARAS)"
  },
  {
    "id": 616738508,
    "date": "2023.02.06",
    "time": "14:46:19",
    "lat": 37.2113,
    "lng": 28.966,
    "depth": 10.2,
    "MD": "-.-",
    "ML": 2.8,
    "Mw": "-.-",
    "location": "UZUNOLUK-BEYAGAC",
    "city": "(DENIZLI)"
  },
  {
    "id": 616678893,
    "date": "2023.02.06",
    "time": "14:44:07",
    "lat": 38.3,
    "lng": 38.1485,
    "depth": 1.4,
    "MD": "-.-",
    "ML": 4.5,
    "Mw": "-.-",
    "location": "DURULDU",
    "city": "(MALATYA)"
  },
  {
    "id": 616649159,
    "date": "2023.02.06",
    "time": "14:43:22",
    "lat": 38.0588,
    "lng": 37.0498,
    "depth": 10.5,
    "MD": "-.-",
    "ML": 3.8,
    "Mw": "-.-",
    "location": "KANDILKOY-EKINOZU",
    "city": "(KAHRAMANMARAS)"
  },
  {
    "id": 615904445,
    "date": "2023.02.06",
    "time": "14:39:41",
    "lat": 38.1025,
    "lng": 36.4763,
    "depth": 5,
    "MD": "-.-",
    "ML": 4.6,
    "Mw": "-.-",
    "location": "MAHMUTBEY-GOKSUN",
    "city": "(KAHRAMANMARAS)"
  },
  {
    "id": 615785225,
    "date": "2023.02.06",
    "time": "14:35:27",
    "lat": 38.0275,
    "lng": 37.4738,
    "depth": 5.2,
    "MD": "-.-",
    "ML": 4.5,
    "Mw": "-.-",
    "location": "TATLAR-NURHAK",
    "city": "(KAHRAMANMARAS)"
  },
  {
    "id": 615755404,
    "date": "2023.02.06",
    "time": "14:34:18",
    "lat": 38.1448,
    "lng": 37.6645,
    "depth": 9.1,
    "MD": "-.-",
    "ML": 4.1,
    "Mw": "-.-",
    "location": "TAPKIRAN-ELBISTAN",
    "city": "(KAHRAMANMARAS)"
  },
  {
    "id": 614802177,
    "date": "2023.02.06",
    "time": "14:23:40",
    "lat": 38.0058,
    "lng": 37.043,
    "depth": 8.6,
    "MD": "-.-",
    "ML": 3.9,
    "Mw": "-.-",
    "location": "KURTUL-EKINOZU",
    "city": "(KAHRAMANMARAS)"
  },
  {
    "id": 614712745,
    "date": "2023.02.06",
    "time": "14:20:23",
    "lat": 38.1508,
    "lng": 37.8658,
    "depth": 12.1,
    "MD": "-.-",
    "ML": 3.9,
    "Mw": "-.-",
    "location": "POLAT-DOGANSEHIR",
    "city": "(MALATYA)"
  },
  {
    "id": 613968007,
    "date": "2023.02.06",
    "time": "14:16:39",
    "lat": 38.0603,
    "lng": 36.5322,
    "depth": 14.1,
    "MD": "-.-",
    "ML": 4.2,
    "Mw": "-.-",
    "location": "ORTATEPE-GOKSUN",
    "city": "(KAHRAMANMARAS)"
  },
  {
    "id": 613819052,
    "date": "2023.02.06",
    "time": "14:11:39",
    "lat": 38.0815,
    "lng": 37.299,
    "depth": 1.4,
    "MD": "-.-",
    "ML": 4.8,
    "Mw": "-.-",
    "location": "OZCANLI-ELBISTAN",
    "city": "(KAHRAMANMARAS)"
  },
  {
    "id": 613014693,
    "date": "2023.02.06",
    "time": "14:05:37",
    "lat": 38.1308,
    "lng": 36.4318,
    "depth": 5.4,
    "MD": "-.-",
    "ML": 4.8,
    "Mw": "-.-",
    "location": "MURSEL-GOKSUN",
    "city": "(KAHRAMANMARAS)"
  },
  {
    "id": -269841624,
    "date": "2023.02.06",
    "time": "13:56:26",
    "lat": 38.0542,
    "lng": 37.4667,
    "depth": 20.4,
    "MD": "-.-",
    "ML": 4.4,
    "Mw": "-.-",
    "location": "TATLAR-NURHAK",
    "city": "(KAHRAMANMARAS)"
  },
  {
    "id": -269871479,
    "date": "2023.02.06",
    "time": "13:55:04",
    "lat": 38.2883,
    "lng": 38.3595,
    "depth": 6.4,
    "MD": "-.-",
    "ML": 3.9,
    "Mw": "-.-",
    "location": "KARAGOZ",
    "city": "(MALATYA)"
  },
  {
    "id": -269990553,
    "date": "2023.02.06",
    "time": "13:51:31",
    "lat": 38.2988,
    "lng": 38.1322,
    "depth": 7.5,
    "MD": "-.-",
    "ML": 5.8,
    "Mw": "-.-",
    "location": "DURULDU",
    "city": "(MALATYA)"
  },
  {
    "id": -271718362,
    "date": "2023.02.06",
    "time": "13:35:58",
    "lat": 38.1835,
    "lng": 37.7738,
    "depth": 9.1,
    "MD": "-.-",
    "ML": 6,
    "Mw": "-.-",
    "location": "CAVUSLU-DOGANSEHIR",
    "city": "(MALATYA)"
  },
  {
    "id": -272671707,
    "date": "2023.02.06",
    "time": "13:24:46",
    "lat": 38.0717,
    "lng": 37.2063,
    "depth": 5,
    "MD": "-.-",
    "ML": 7.5,
    "Mw": "-.-",
    "location": "EKINOZU",
    "city": "(KAHRAMANMARAS)"
  },
  {
    "id": -273654904,
    "date": "2023.02.06",
    "time": "13:12:15",
    "lat": 38.124,
    "lng": 38.3465,
    "depth": 5.3,
    "MD": "-.-",
    "ML": 4.2,
    "Mw": "-.-",
    "location": "SALKONAK-YESILYURT",
    "city": "(MALATYA)"
  },
  {
    "id": -274369890,
    "date": "2023.02.06",
    "time": "13:09:13",
    "lat": 37.3233,
    "lng": 36.9377,
    "depth": 9,
    "MD": "-.-",
    "ML": 3.7,
    "Mw": "-.-",
    "location": "HACIBEBEK-TURKOGLU",
    "city": "(KAHRAMANMARAS)"
  },
  {
    "id": -274429408,
    "date": "2023.02.06",
    "time": "13:07:35",
    "lat": 38.1258,
    "lng": 38.2478,
    "depth": 5.4,
    "MD": "-.-",
    "ML": 3.9,
    "Mw": "4.2",
    "location": "CAMPINAR-CELIKHAN",
    "city": "(ADIYAMAN)"
  },
  {
    "id": -1157315543,
    "date": "2023.02.06",
    "time": "12:57:18",
    "lat": 37.1315,
    "lng": 36.9428,
    "depth": 5.3,
    "MD": "-.-",
    "ML": 3.6,
    "Mw": "3.4",
    "location": "IKIZKUYU-NURDAGI",
    "city": "(GAZIANTEP)"
  },
  {
    "id": -1157404893,
    "date": "2023.02.06",
    "time": "12:54:20",
    "lat": 37.828,
    "lng": 37.5482,
    "depth": 5.5,
    "MD": "-.-",
    "ML": 3.7,
    "Mw": "3.8",
    "location": "SAVRAN-GOLBASI",
    "city": "(ADIYAMAN)"
  },
  {
    "id": -1157434741,
    "date": "2023.02.06",
    "time": "12:53:05",
    "lat": 40.825,
    "lng": 30.9442,
    "depth": 19.3,
    "MD": "-.-",
    "ML": 2,
    "Mw": "-.-",
    "location": "YONGALIK-GUMUSOVA",
    "city": "(DUZCE)"
  },
  {
    "id": -1158209187,
    "date": "2023.02.06",
    "time": "12:48:41",
    "lat": 38.8297,
    "lng": 39.4927,
    "depth": 5,
    "MD": "-.-",
    "ML": 4.3,
    "Mw": "4.2",
    "location": "KONURAT-PERTEK",
    "city": "(TUNCELI)"
  },
  {
    "id": -1158358111,
    "date": "2023.02.06",
    "time": "12:43:51",
    "lat": 38.3275,
    "lng": 38.7747,
    "depth": 8.9,
    "MD": "-.-",
    "ML": 3.9,
    "Mw": "4.0",
    "location": "CANAKCI-KALE",
    "city": "(MALATYA)"
  },
  {
    "id": -1159192379,
    "date": "2023.02.06",
    "time": "12:36:15",
    "lat": 37.2783,
    "lng": 36.7473,
    "depth": 5,
    "MD": "-.-",
    "ML": 4.7,
    "Mw": "4.4",
    "location": "SEKEROBA-TURKOGLU",
    "city": "(KAHRAMANMARAS)"
  },
  {
    "id": -1159311547,
    "date": "2023.02.06",
    "time": "12:32:11",
    "lat": 38.3657,
    "lng": 35.5207,
    "depth": 10.3,
    "MD": "-.-",
    "ML": 3.2,
    "Mw": "-.-",
    "location": "AYVAZHACI-DEVELI",
    "city": "(KAYSERI)"
  },
  {
    "id": -1159371000,
    "date": "2023.02.06",
    "time": "12:30:56",
    "lat": 38.6803,
    "lng": 35.3107,
    "depth": 2.2,
    "MD": "-.-",
    "ML": 3,
    "Mw": "3.1",
    "location": "KARPUZSEKISI-HACILAR",
    "city": "(KAYSERI)"
  },
  {
    "id": -1160205180,
    "date": "2023.02.06",
    "time": "12:23:45",
    "lat": 36.936,
    "lng": 36.4072,
    "depth": 12.7,
    "MD": "-.-",
    "ML": 4.9,
    "Mw": "4.5",
    "location": "KULLU",
    "city": "(OSMANIYE)"
  },
  {
    "id": -1160264890,
    "date": "2023.02.06",
    "time": "12:21:01",
    "lat": 38.1723,
    "lng": 38.2457,
    "depth": 4.3,
    "MD": "-.-",
    "ML": 4.4,
    "Mw": "4.4",
    "location": "ATALAR-YESILYURT",
    "city": "(MALATYA)"
  },
  {
    "id": -1161992614,
    "date": "2023.02.06",
    "time": "12:05:50",
    "lat": 37.4897,
    "lng": 37.0945,
    "depth": 12,
    "MD": "-.-",
    "ML": 3.5,
    "Mw": "-.-",
    "location": "CIGLI",
    "city": "(KAHRAMANMARAS)"
  },
  {
    "id": -1161992731,
    "date": "2023.02.06",
    "time": "12:05:17",
    "lat": 37.2672,
    "lng": 36.8763,
    "depth": 6.4,
    "MD": "-.-",
    "ML": 3.6,
    "Mw": "-.-",
    "location": "MINEHUYUK-TURKOGLU",
    "city": "(KAHRAMANMARAS)"
  },
  {
    "id": -1162052281,
    "date": "2023.02.06",
    "time": "12:03:28",
    "lat": 37.1343,
    "lng": 36.7163,
    "depth": 9.6,
    "MD": "-.-",
    "ML": 3.2,
    "Mw": "-.-",
    "location": "KARABURCLU-NURDAGI",
    "city": "(GAZIANTEP)"
  },
  {
    "id": -1162111835,
    "date": "2023.02.06",
    "time": "12:01:35",
    "lat": 36.6303,
    "lng": 36.4043,
    "depth": 8,
    "MD": "-.-",
    "ML": 3.9,
    "Mw": "-.-",
    "location": "SAYLAK-KIRIKHAN",
    "city": "(HATAY)"
  },
  {
    "id": -2044789375,
    "date": "2023.02.06",
    "time": "11:58:34",
    "lat": 38.1123,
    "lng": 38.3718,
    "depth": 7.9,
    "MD": "-.-",
    "ML": 4.5,
    "Mw": "-.-",
    "location": "TASDAMLAR-CELIKHAN",
    "city": "(ADIYAMAN)"
  },
  {
    "id": -2044968119,
    "date": "2023.02.06",
    "time": "11:52:36",
    "lat": 37.4928,
    "lng": 37.1302,
    "depth": 5,
    "MD": "-.-",
    "ML": 4.7,
    "Mw": "-.-",
    "location": "KARTAL",
    "city": "(KAHRAMANMARAS)"
  },
  {
    "id": -2045802270,
    "date": "2023.02.06",
    "time": "11:45:33",
    "lat": 37.36,
    "lng": 37.0698,
    "depth": 10.3,
    "MD": "-.-",
    "ML": 3.7,
    "Mw": "-.-",
    "location": "ARSLANBEY-PAZARCIK",
    "city": "(KAHRAMANMARAS)"
  },
  {
    "id": -2045921368,
    "date": "2023.02.06",
    "time": "11:41:57",
    "lat": 37.0495,
    "lng": 37.01,
    "depth": 5,
    "MD": "-.-",
    "ML": 3.4,
    "Mw": "3.5",
    "location": "ORTAKLAR-SAHINBEY",
    "city": "(GAZIANTEP)"
  },
  {
    "id": -2045951281,
    "date": "2023.02.06",
    "time": "11:40:19",
    "lat": 38.0682,
    "lng": 38.1455,
    "depth": 5.4,
    "MD": "-.-",
    "ML": 3.7,
    "Mw": "4.1",
    "location": "PINARBASI-CELIKHAN",
    "city": "(ADIYAMAN)"
  },
  {
    "id": -2046725727,
    "date": "2023.02.06",
    "time": "11:35:55",
    "lat": 36.6202,
    "lng": 36.5175,
    "depth": 21.4,
    "MD": "-.-",
    "ML": 2.9,
    "Mw": "2.7",
    "location": "CAMUZKISLASI-KIRIKHAN",
    "city": "(HATAY)"
  },
  {
    "id": -2046785306,
    "date": "2023.02.06",
    "time": "11:33:58",
    "lat": 37.335,
    "lng": 36.8778,
    "depth": 5.4,
    "MD": "-.-",
    "ML": 3.1,
    "Mw": "-.-",
    "location": "HACIBEBEK-TURKOGLU",
    "city": "(KAHRAMANMARAS)"
  },
  {
    "id": -2046815260,
    "date": "2023.02.06",
    "time": "11:32:00",
    "lat": 40.8002,
    "lng": 30.8658,
    "depth": 14.6,
    "MD": "-.-",
    "ML": 2.9,
    "Mw": "-.-",
    "location": "YESILYAYLA-GUMUSOVA",
    "city": "(DUZCE)"
  },
  {
    "id": -2047649275,
    "date": "2023.02.06",
    "time": "11:25:49",
    "lat": 37.2038,
    "lng": 36.937,
    "depth": 5.3,
    "MD": "-.-",
    "ML": 3.7,
    "Mw": "-.-",
    "location": "SAKCAGOZE-NURDAGI",
    "city": "(GAZIANTEP)"
  },
  {
    "id": -2047679042,
    "date": "2023.02.06",
    "time": "11:24:52",
    "lat": 40.8043,
    "lng": 31.0935,
    "depth": 15.9,
    "MD": "-.-",
    "ML": 2.2,
    "Mw": "-.-",
    "location": "HOCAOGLU",
    "city": "(DUZCE)"
  },
  {
    "id": -2047738621,
    "date": "2023.02.06",
    "time": "11:22:55",
    "lat": 37.3668,
    "lng": 37.1885,
    "depth": 16.4,
    "MD": "-.-",
    "ML": 2.7,
    "Mw": "-.-",
    "location": "AKCAKOYUNLU-PAZARCIK",
    "city": "(KAHRAMANMARAS)"
  },
  {
    "id": -2048662147,
    "date": "2023.02.06",
    "time": "11:12:50",
    "lat": 37.2453,
    "lng": 37.0343,
    "depth": 22.3,
    "MD": "-.-",
    "ML": 3.1,
    "Mw": "-.-",
    "location": "KARAHUYUK-PAZARCIK",
    "city": "(KAHRAMANMARAS)"
  },
  {
    "id": -2048692084,
    "date": "2023.02.06",
    "time": "11:11:09",
    "lat": 37.2915,
    "lng": 36.9255,
    "depth": 9.9,
    "MD": "-.-",
    "ML": 2.3,
    "Mw": "-.-",
    "location": "EMIRLER-NURDAGI",
    "city": "(GAZIANTEP)"
  },
  {
    "id": -2049406975,
    "date": "2023.02.06",
    "time": "11:08:39",
    "lat": 37.2553,
    "lng": 36.9637,
    "depth": 5.4,
    "MD": "-.-",
    "ML": 3.5,
    "Mw": "-.-",
    "location": "INCIRLI-NURDAGI",
    "city": "(GAZIANTEP)"
  },
  {
    "id": -2049466563,
    "date": "2023.02.06",
    "time": "11:06:33",
    "lat": 37.4627,
    "lng": 37.0797,
    "depth": 16.7,
    "MD": "-.-",
    "ML": 2.7,
    "Mw": "-.-",
    "location": "CINARLI-PAZARCIK",
    "city": "(KAHRAMANMARAS)"
  },
  {
    "id": -2049526144,
    "date": "2023.02.06",
    "time": "11:04:34",
    "lat": 37.5377,
    "lng": 37.3382,
    "depth": 5.7,
    "MD": "-.-",
    "ML": 3.1,
    "Mw": "-.-",
    "location": "SAHINTEPE-PAZARCIK",
    "city": "(KAHRAMANMARAS)"
  },
  {
    "id": -2049585787,
    "date": "2023.02.06",
    "time": "11:02:15",
    "lat": 37.9395,
    "lng": 37.976,
    "depth": 10.3,
    "MD": "-.-",
    "ML": 4.2,
    "Mw": "4.2",
    "location": "ERKENEK-DOGANSEHIR",
    "city": "(MALATYA)"
  },
  {
    "id": -2049615482,
    "date": "2023.02.06",
    "time": "11:01:48",
    "lat": 36.5853,
    "lng": 36.4533,
    "depth": 12.8,
    "MD": "-.-",
    "ML": 4.2,
    "Mw": "-.-",
    "location": "CAMSARI-KIRIKHAN",
    "city": "(HATAY)"
  },
  {
    "id": 1362703971,
    "date": "2023.02.06",
    "time": "10:59:16",
    "lat": 38.593,
    "lng": 40.8903,
    "depth": 3.4,
    "MD": "-.-",
    "ML": 3.1,
    "Mw": "-.-",
    "location": "AGILLI-KULP",
    "city": "(DIYARBAKIR)"
  },
  {
    "id": 1362435971,
    "date": "2023.02.06",
    "time": "10:50:51",
    "lat": 39.1028,
    "lng": 40.419,
    "depth": 2.6,
    "MD": "-.-",
    "ML": 3.5,
    "Mw": "3.5",
    "location": "SANCAK",
    "city": "(BINGOL)"
  },
  {
    "id": 1361780422,
    "date": "2023.02.06",
    "time": "10:49:09",
    "lat": 37.7408,
    "lng": 37.3137,
    "depth": 8.9,
    "MD": "-.-",
    "ML": 3.3,
    "Mw": "3.6",
    "location": "CAGLAYANCERIT",
    "city": "(KAHRAMANMARAS)"
  },
  {
    "id": 1361720930,
    "date": "2023.02.06",
    "time": "10:47:36",
    "lat": 38.0655,
    "lng": 38.0805,
    "depth": 5,
    "MD": "-.-",
    "ML": 3.8,
    "Mw": "3.9",
    "location": "YALINKAYA-YESILYURT",
    "city": "(MALATYA)"
  },
  {
    "id": 1361661252,
    "date": "2023.02.06",
    "time": "10:45:03",
    "lat": 36.353,
    "lng": 36.3235,
    "depth": 16.8,
    "MD": "-.-",
    "ML": 2.6,
    "Mw": "-.-",
    "location": "AKTAS-KUMLU",
    "city": "(HATAY)"
  },
  {
    "id": 1361601768,
    "date": "2023.02.06",
    "time": "10:43:38",
    "lat": 37.463,
    "lng": 37.3798,
    "depth": 19.7,
    "MD": "-.-",
    "ML": 3.3,
    "Mw": "-.-",
    "location": "SADAKALAR-PAZARCIK",
    "city": "(KAHRAMANMARAS)"
  },
  {
    "id": 1361601676,
    "date": "2023.02.06",
    "time": "10:43:09",
    "lat": 37.2048,
    "lng": 37.4778,
    "depth": 28.8,
    "MD": "-.-",
    "ML": 3.7,
    "Mw": "-.-",
    "location": "GUNGURGE-SEHITKAMIL",
    "city": "(GAZIANTEP)"
  },
  {
    "id": 1360857019,
    "date": "2023.02.06",
    "time": "10:39:43",
    "lat": 37.156,
    "lng": 36.7495,
    "depth": 8.2,
    "MD": "-.-",
    "ML": 3.5,
    "Mw": "-.-",
    "location": "NURDAGI",
    "city": "(GAZIANTEP)"
  },
  {
    "id": 1360737828,
    "date": "2023.02.06",
    "time": "10:35:37",
    "lat": 37.3273,
    "lng": 36.966,
    "depth": 5,
    "MD": "-.-",
    "ML": 3.7,
    "Mw": "-.-",
    "location": "KADIOGLUCIFTLIGI-TURKOGLU",
    "city": "(KAHRAMANMARAS)"
  },
  {
    "id": 1360618564,
    "date": "2023.02.06",
    "time": "10:31:00",
    "lat": 37.335,
    "lng": 37.0677,
    "depth": 5,
    "MD": "-.-",
    "ML": 3.7,
    "Mw": "-.-",
    "location": "EMIROGLU-PAZARCIK",
    "city": "(KAHRAMANMARAS)"
  },
  {
    "id": 1359903681,
    "date": "2023.02.06",
    "time": "10:28:38",
    "lat": 36.9838,
    "lng": 36.935,
    "depth": 5.2,
    "MD": "-.-",
    "ML": 3,
    "Mw": "3.2",
    "location": "YENICELI-ISLAHIYE",
    "city": "(GAZIANTEP)"
  },
  {
    "id": 1359844126,
    "date": "2023.02.06",
    "time": "10:26:44",
    "lat": 37.4453,
    "lng": 38.1355,
    "depth": 5,
    "MD": "-.-",
    "ML": 3.5,
    "Mw": "3.8",
    "location": "KIZILIN-BESNI",
    "city": "(ADIYAMAN)"
  },
  {
    "id": 1359784482,
    "date": "2023.02.06",
    "time": "10:24:24",
    "lat": 36.0055,
    "lng": 36.0695,
    "depth": 23.5,
    "MD": "-.-",
    "ML": 3.7,
    "Mw": "-.-",
    "location": "SURUTME-YAYLADAGI",
    "city": "(HATAY)"
  },
  {
    "id": 1359754688,
    "date": "2023.02.06",
    "time": "10:23:21",
    "lat": 37.34,
    "lng": 36.8628,
    "depth": 11.3,
    "MD": "-.-",
    "ML": 3.6,
    "Mw": "-.-",
    "location": "HACIBEBEK-TURKOGLU",
    "city": "(KAHRAMANMARAS)"
  },
  {
    "id": 1359695049,
    "date": "2023.02.06",
    "time": "10:21:06",
    "lat": 37.4762,
    "lng": 37.1397,
    "depth": 6.5,
    "MD": "-.-",
    "ML": 4,
    "Mw": "-.-",
    "location": "DOGANLIKARAHASAN-PAZARCIK",
    "city": "(KAHRAMANMARAS)"
  },
  {
    "id": 1358801344,
    "date": "2023.02.06",
    "time": "10:12:10",
    "lat": 37.2535,
    "lng": 37.0495,
    "depth": 5.4,
    "MD": "-.-",
    "ML": 3.4,
    "Mw": "-.-",
    "location": "EVRI-PAZARCIK",
    "city": "(KAHRAMANMARAS)"
  },
  {
    "id": 1358741762,
    "date": "2023.02.06",
    "time": "10:10:10",
    "lat": 36.6228,
    "lng": 36.391,
    "depth": 9.8,
    "MD": "-.-",
    "ML": 3.8,
    "Mw": "-.-",
    "location": "TASOLUK-KIRIKHAN",
    "city": "(HATAY)"
  },
  {
    "id": 1358056632,
    "date": "2023.02.06",
    "time": "10:08:31",
    "lat": 36.6005,
    "lng": 36.4462,
    "depth": 11.6,
    "MD": "-.-",
    "ML": 4.6,
    "Mw": "-.-",
    "location": "SOGUTLUOZ-KIRIKHAN",
    "city": "(HATAY)"
  },
  {
    "id": 1357937380,
    "date": "2023.02.06",
    "time": "10:04:06",
    "lat": 37.477,
    "lng": 37.1082,
    "depth": 5.3,
    "MD": "-.-",
    "ML": 3.6,
    "Mw": "-.-",
    "location": "SEYRANTEPE-PAZARCIK",
    "city": "(KAHRAMANMARAS)"
  },
  {
    "id": -982507860,
    "date": "2023.02.06",
    "time": "09:59:04",
    "lat": 37.4543,
    "lng": 37.0848,
    "depth": 5,
    "MD": "-.-",
    "ML": 4.2,
    "Mw": "-.-",
    "location": "CINARLI-PAZARCIK",
    "city": "(KAHRAMANMARAS)"
  },
  {
    "id": -982656658,
    "date": "2023.02.06",
    "time": "09:54:56",
    "lat": 37.7467,
    "lng": 37.3912,
    "depth": 2.3,
    "MD": "-.-",
    "ML": 5.1,
    "Mw": "-.-",
    "location": "KUCUKCERIT-CAGLAYANCERIT",
    "city": "(KAHRAMANMARAS)"
  },
  {
    "id": -982746190,
    "date": "2023.02.06",
    "time": "09:51:02",
    "lat": 37.2447,
    "lng": 36.7148,
    "depth": 12.4,
    "MD": "-.-",
    "ML": 2.9,
    "Mw": "-.-",
    "location": "DEDELER-TURKOGLU",
    "city": "(KAHRAMANMARAS)"
  },
  {
    "id": -983461108,
    "date": "2023.02.06",
    "time": "09:48:26",
    "lat": 37.9808,
    "lng": 37.9883,
    "depth": 12.1,
    "MD": "-.-",
    "ML": 3.8,
    "Mw": "-.-",
    "location": "RESADIYE-DOGANSEHIR",
    "city": "(MALATYA)"
  },
  {
    "id": -983610096,
    "date": "2023.02.06",
    "time": "09:43:14",
    "lat": 37.7527,
    "lng": 37.2492,
    "depth": 9,
    "MD": "-.-",
    "ML": 4.2,
    "Mw": "-.-",
    "location": "CAGLAYANCERIT",
    "city": "(KAHRAMANMARAS)"
  },
  {
    "id": -984354782,
    "date": "2023.02.06",
    "time": "09:39:40",
    "lat": 37.517,
    "lng": 36.9003,
    "depth": 14,
    "MD": "-.-",
    "ML": 2.7,
    "Mw": "-.-",
    "location": "HACIMUSTAFA",
    "city": "(KAHRAMANMARAS)"
  },
  {
    "id": -984384666,
    "date": "2023.02.06",
    "time": "09:38:10",
    "lat": 36.7803,
    "lng": 36.474,
    "depth": 12.5,
    "MD": "-.-",
    "ML": 3.8,
    "Mw": "-.-",
    "location": "SOGUT-HASSA",
    "city": "(HATAY)"
  },
  {
    "id": -984444147,
    "date": "2023.02.06",
    "time": "09:36:48",
    "lat": 37.3072,
    "lng": 36.868,
    "depth": 10.4,
    "MD": "-.-",
    "ML": 3.3,
    "Mw": "-.-",
    "location": "BALIKALAN-NURDAGI",
    "city": "(GAZIANTEP)"
  },
  {
    "id": -984533612,
    "date": "2023.02.06",
    "time": "09:33:19",
    "lat": 37.2555,
    "lng": 37.0557,
    "depth": 14.7,
    "MD": "-.-",
    "ML": 3.3,
    "Mw": "-.-",
    "location": "EVRI-PAZARCIK",
    "city": "(KAHRAMANMARAS)"
  },
  {
    "id": -984593108,
    "date": "2023.02.06",
    "time": "09:31:42",
    "lat": 38.1043,
    "lng": 38.042,
    "depth": 5,
    "MD": "-.-",
    "ML": 3.1,
    "Mw": "-.-",
    "location": "ESKIKOY-DOGANSEHIR",
    "city": "(MALATYA)"
  },
  {
    "id": -985278295,
    "date": "2023.02.06",
    "time": "09:29:48",
    "lat": 37.385,
    "lng": 36.8763,
    "depth": 16.2,
    "MD": "-.-",
    "ML": 3.1,
    "Mw": "-.-",
    "location": "TURKOGLU",
    "city": "(KAHRAMANMARAS)"
  },
  {
    "id": -985367730,
    "date": "2023.02.06",
    "time": "09:26:28",
    "lat": 37.259,
    "lng": 36.9835,
    "depth": 5.2,
    "MD": "-.-",
    "ML": 4.7,
    "Mw": "-.-",
    "location": "INCIRLI-NURDAGI",
    "city": "(GAZIANTEP)"
  },
  {
    "id": -985367766,
    "date": "2023.02.06",
    "time": "09:26:13",
    "lat": 36.25,
    "lng": 36.1575,
    "depth": 21.9,
    "MD": "-.-",
    "ML": 4.2,
    "Mw": "-.-",
    "location": "KUZEYTEPE",
    "city": "(HATAY)"
  },
  {
    "id": -985457077,
    "date": "2023.02.06",
    "time": "09:23:33",
    "lat": 37.2938,
    "lng": 37.0967,
    "depth": 2.7,
    "MD": "-.-",
    "ML": 3.2,
    "Mw": "-.-",
    "location": "ORDEKDEDE-PAZARCIK",
    "city": "(KAHRAMANMARAS)"
  },
  {
    "id": -986231739,
    "date": "2023.02.06",
    "time": "09:18:00",
    "lat": 38.1692,
    "lng": 38.3713,
    "depth": 7.1,
    "MD": "-.-",
    "ML": 4,
    "Mw": "-.-",
    "location": "ONCU-YESILYURT",
    "city": "(MALATYA)"
  },
  {
    "id": -986291281,
    "date": "2023.02.06",
    "time": "09:16:19",
    "lat": 37.0492,
    "lng": 36.9962,
    "depth": 5,
    "MD": "-.-",
    "ML": 3.4,
    "Mw": "-.-",
    "location": "ORTAKLAR-SAHINBEY",
    "city": "(GAZIANTEP)"
  },
  {
    "id": -986350802,
    "date": "2023.02.06",
    "time": "09:14:38",
    "lat": 37.3925,
    "lng": 36.9622,
    "depth": 2.8,
    "MD": "-.-",
    "ML": 4.1,
    "Mw": "-.-",
    "location": "PINARHUYUK-TURKOGLU",
    "city": "(KAHRAMANMARAS)"
  },
  {
    "id": -986380694,
    "date": "2023.02.06",
    "time": "09:13:00",
    "lat": 36.6845,
    "lng": 37.2695,
    "depth": 24.7,
    "MD": "-.-",
    "ML": 3.5,
    "Mw": "-.-",
    "location": "YAVUZLU",
    "city": "(KILIS)"
  },
  {
    "id": -987125464,
    "date": "2023.02.06",
    "time": "09:09:05",
    "lat": 37.2533,
    "lng": 36.8862,
    "depth": 21.2,
    "MD": "-.-",
    "ML": 3.7,
    "Mw": "-.-",
    "location": "NOGAYLAR-NURDAGI",
    "city": "(GAZIANTEP)"
  },
  {
    "id": -987274417,
    "date": "2023.02.06",
    "time": "09:04:07",
    "lat": 36.8768,
    "lng": 36.7708,
    "depth": 6,
    "MD": "-.-",
    "ML": 3.3,
    "Mw": "-.-",
    "location": "DEMIRCILER",
    "city": "(KILIS)"
  },
  {
    "id": -987393583,
    "date": "2023.02.06",
    "time": "09:00:05",
    "lat": 37.3973,
    "lng": 37.0933,
    "depth": 5.4,
    "MD": "-.-",
    "ML": 3.6,
    "Mw": "-.-",
    "location": "MAKSUTUSAGI-PAZARCIK",
    "city": "(KAHRAMANMARAS)"
  },
  {
    "id": -1870130577,
    "date": "2023.02.06",
    "time": "08:55:48",
    "lat": 38.004,
    "lng": 38.1682,
    "depth": 27.7,
    "MD": "-.-",
    "ML": 4.4,
    "Mw": "-.-",
    "location": "PINARBASI-CELIKHAN",
    "city": "(ADIYAMAN)"
  },
  {
    "id": -1870249718,
    "date": "2023.02.06",
    "time": "08:51:50",
    "lat": 36.2788,
    "lng": 36.2258,
    "depth": 12,
    "MD": "-.-",
    "ML": 3.3,
    "Mw": "3.6",
    "location": "AKCAOVA",
    "city": "(HATAY)"
  },
  {
    "id": -1870994484,
    "date": "2023.02.06",
    "time": "08:47:59",
    "lat": 37.2017,
    "lng": 36.6963,
    "depth": 7.2,
    "MD": "-.-",
    "ML": 3.4,
    "Mw": "-.-",
    "location": "OLUCAK-NURDAGI",
    "city": "(GAZIANTEP)"
  },
  {
    "id": -1871083861,
    "date": "2023.02.06",
    "time": "08:44:55",
    "lat": 36.4033,
    "lng": 36.238,
    "depth": 11.1,
    "MD": "-.-",
    "ML": 4.2,
    "Mw": "4.2",
    "location": "MARASBOGAZI",
    "city": "(HATAY)"
  },
  {
    "id": -1871203184,
    "date": "2023.02.06",
    "time": "08:40:01",
    "lat": 37.1853,
    "lng": 36.9282,
    "depth": 5.3,
    "MD": "-.-",
    "ML": 3.2,
    "Mw": "-.-",
    "location": "SAKCAGOZE-NURDAGI",
    "city": "(GAZIANTEP)"
  },
  {
    "id": -1871947864,
    "date": "2023.02.06",
    "time": "08:36:33",
    "lat": 36.297,
    "lng": 36.2035,
    "depth": 15.4,
    "MD": "-.-",
    "ML": 4.9,
    "Mw": "-.-",
    "location": "BUYUKDALYAN",
    "city": "(HATAY)"
  },
  {
    "id": -1872037324,
    "date": "2023.02.06",
    "time": "08:33:09",
    "lat": 38.1112,
    "lng": 38.2308,
    "depth": 9.5,
    "MD": "-.-",
    "ML": 4.3,
    "Mw": "4.1",
    "location": "CAMPINAR-CELIKHAN",
    "city": "(ADIYAMAN)"
  },
  {
    "id": -1872096851,
    "date": "2023.02.06",
    "time": "08:31:22",
    "lat": 38.1848,
    "lng": 38.3047,
    "depth": 5,
    "MD": "-.-",
    "ML": 4.5,
    "Mw": "4.2",
    "location": "ONCU-YESILYURT",
    "city": "(MALATYA)"
  },
  {
    "id": -1872990517,
    "date": "2023.02.06",
    "time": "08:22:44",
    "lat": 37.8463,
    "lng": 37.9437,
    "depth": 5.4,
    "MD": "-.-",
    "ML": 4.2,
    "Mw": "4.2",
    "location": "KASLICA-TUT",
    "city": "(ADIYAMAN)"
  },
  {
    "id": -1873020307,
    "date": "2023.02.06",
    "time": "08:21:45",
    "lat": 37.4427,
    "lng": 37.1208,
    "depth": 13.2,
    "MD": "-.-",
    "ML": 3.6,
    "Mw": "-.-",
    "location": "SEYRANTEPE-PAZARCIK",
    "city": "(KAHRAMANMARAS)"
  },
  {
    "id": -1873705498,
    "date": "2023.02.06",
    "time": "08:19:47",
    "lat": 38.2045,
    "lng": 38.5273,
    "depth": 20.8,
    "MD": "-.-",
    "ML": 4.1,
    "Mw": "4.0",
    "location": "GULUMUSAGI",
    "city": "(MALATYA)"
  },
  {
    "id": -1873794842,
    "date": "2023.02.06",
    "time": "08:16:55",
    "lat": 37.8838,
    "lng": 37.7122,
    "depth": 8.3,
    "MD": "-.-",
    "ML": 4.2,
    "Mw": "4.2",
    "location": "KARABAHSILI-GOLBASI",
    "city": "(ADIYAMAN)"
  },
  {
    "id": -1873914010,
    "date": "2023.02.06",
    "time": "08:12:51",
    "lat": 37.4768,
    "lng": 37.1892,
    "depth": 23,
    "MD": "-.-",
    "ML": 3.8,
    "Mw": "-.-",
    "location": "SOGUTLU-PAZARCIK",
    "city": "(KAHRAMANMARAS)"
  },
  {
    "id": -1873914067,
    "date": "2023.02.06",
    "time": "08:12:36",
    "lat": 39.1352,
    "lng": 42.0467,
    "depth": 7.7,
    "MD": "-.-",
    "ML": 2.4,
    "Mw": "-.-",
    "location": "KOPRUYOLU-BULANIK",
    "city": "(MUS)"
  },
  {
    "id": -1874658842,
    "date": "2023.02.06",
    "time": "08:08:36",
    "lat": 37.3442,
    "lng": 36.8698,
    "depth": 5.4,
    "MD": "-.-",
    "ML": 4.3,
    "Mw": "-.-",
    "location": "HACIBEBEK-TURKOGLU",
    "city": "(KAHRAMANMARAS)"
  },
  {
    "id": -1874778012,
    "date": "2023.02.06",
    "time": "08:04:30",
    "lat": 37.3297,
    "lng": 37.0503,
    "depth": 15.9,
    "MD": "-.-",
    "ML": 3.6,
    "Mw": "-.-",
    "location": "EMIROGLU-PAZARCIK",
    "city": "(KAHRAMANMARAS)"
  },
  {
    "id": -1874867345,
    "date": "2023.02.06",
    "time": "08:01:49",
    "lat": 37.9323,
    "lng": 37.7783,
    "depth": 15.5,
    "MD": "-.-",
    "ML": 4.5,
    "Mw": "-.-",
    "location": "KARANLIKDERE-DOGANSEHIR",
    "city": "(MALATYA)"
  },
  {
    "id": 1537452228,
    "date": "2023.02.06",
    "time": "07:59:53",
    "lat": 39.576,
    "lng": 25.9328,
    "depth": 6.7,
    "MD": "-.-",
    "ML": 2.6,
    "Mw": "-.-",
    "location": "GULPINAR",
    "city": "ACIKLARI-CANAKKALE"
  },
  {
    "id": 1537422310,
    "date": "2023.02.06",
    "time": "07:58:10",
    "lat": 37.6995,
    "lng": 37.3313,
    "depth": 17,
    "MD": "-.-",
    "ML": 3.8,
    "Mw": "4.0",
    "location": "ORUCPINARI-CAGLAYANCERIT",
    "city": "(KAHRAMANMARAS)"
  },
  {
    "id": 1537362703,
    "date": "2023.02.06",
    "time": "07:56:06",
    "lat": 37.4448,
    "lng": 37.0202,
    "depth": 28.7,
    "MD": "-.-",
    "ML": 4.4,
    "Mw": "-.-",
    "location": "YENIYURT",
    "city": "(KAHRAMANMARAS)"
  },
  {
    "id": 1537303239,
    "date": "2023.02.06",
    "time": "07:54:40",
    "lat": 37.4903,
    "lng": 37.2113,
    "depth": 7.7,
    "MD": "-.-",
    "ML": 3.6,
    "Mw": "-.-",
    "location": "SOGUTLU-PAZARCIK",
    "city": "(KAHRAMANMARAS)"
  },
  {
    "id": 1537303186,
    "date": "2023.02.06",
    "time": "07:54:29",
    "lat": 39.035,
    "lng": 28.6605,
    "depth": 5.7,
    "MD": "-.-",
    "ML": 1.7,
    "Mw": "-.-",
    "location": "DEMIRCI",
    "city": "(MANISA)"
  },
  {
    "id": 1537183989,
    "date": "2023.02.06",
    "time": "07:50:17",
    "lat": 36.5197,
    "lng": 36.3485,
    "depth": 10,
    "MD": "-.-",
    "ML": 3.6,
    "Mw": "-.-",
    "location": "ALAYBEYLI-KIRIKHAN",
    "city": "(HATAY)"
  },
  {
    "id": 1536469129,
    "date": "2023.02.06",
    "time": "07:47:57",
    "lat": 36.6895,
    "lng": 36.3915,
    "depth": 8.5,
    "MD": "-.-",
    "ML": 4.6,
    "Mw": "-.-",
    "location": "GUVENC-HASSA",
    "city": "(HATAY)"
  },
  {
    "id": 1536379753,
    "date": "2023.02.06",
    "time": "07:44:54",
    "lat": 37.4053,
    "lng": 36.6863,
    "depth": 9,
    "MD": "-.-",
    "ML": 3.8,
    "Mw": "-.-",
    "location": "OZTURK",
    "city": "(KAHRAMANMARAS)"
  },
  {
    "id": 1536320174,
    "date": "2023.02.06",
    "time": "07:42:57",
    "lat": 37.3078,
    "lng": 36.89,
    "depth": 8.1,
    "MD": "-.-",
    "ML": 3.6,
    "Mw": "-.-",
    "location": "BALIKALAN-NURDAGI",
    "city": "(GAZIANTEP)"
  },
  {
    "id": 1536320044,
    "date": "2023.02.06",
    "time": "07:42:11",
    "lat": 37.4995,
    "lng": 37.402,
    "depth": 6,
    "MD": "-.-",
    "ML": 2.9,
    "Mw": "-.-",
    "location": "GANIDAGI-PAZARCIK",
    "city": "(KAHRAMANMARAS)"
  },
  {
    "id": 1535605157,
    "date": "2023.02.06",
    "time": "07:39:45",
    "lat": 37.884,
    "lng": 37.6453,
    "depth": 8.5,
    "MD": "-.-",
    "ML": 4.5,
    "Mw": "-.-",
    "location": "MEYDANKOY-GOLBASI",
    "city": "(ADIYAMAN)"
  },
  {
    "id": 1535545480,
    "date": "2023.02.06",
    "time": "07:37:13",
    "lat": 36.242,
    "lng": 36.2438,
    "depth": 11.5,
    "MD": "-.-",
    "ML": 3.3,
    "Mw": "-.-",
    "location": "ALAATTIN",
    "city": "(HATAY)"
  },
  {
    "id": 1535366766,
    "date": "2023.02.06",
    "time": "07:31:24",
    "lat": 36.4342,
    "lng": 36.2412,
    "depth": 5.5,
    "MD": "-.-",
    "ML": 4.3,
    "Mw": "-.-",
    "location": "SENBUK-BELEN",
    "city": "(HATAY)"
  },
  {
    "id": 1535366701,
    "date": "2023.02.06",
    "time": "07:31:01",
    "lat": 37.223,
    "lng": 36.8178,
    "depth": 21.5,
    "MD": "-.-",
    "ML": 4.2,
    "Mw": "-.-",
    "location": "MESTHUYUK-NURDAGI",
    "city": "(GAZIANTEP)"
  },
  {
    "id": 1534651716,
    "date": "2023.02.06",
    "time": "07:28:00",
    "lat": 36.6002,
    "lng": 36.5875,
    "depth": 14.6,
    "MD": "-.-",
    "ML": 3.6,
    "Mw": "-.-",
    "location": "TURKIYE-SURIYE",
    "city": "SINIR"
  },
  {
    "id": 1534562499,
    "date": "2023.02.06",
    "time": "07:25:51",
    "lat": 37.1493,
    "lng": 36.8553,
    "depth": 3.8,
    "MD": "-.-",
    "ML": 3.5,
    "Mw": "-.-",
    "location": "TULLUCE-NURDAGI",
    "city": "(GAZIANTEP)"
  },
  {
    "id": 1534532681,
    "date": "2023.02.06",
    "time": "07:24:45",
    "lat": 37.529,
    "lng": 37.2365,
    "depth": 5.4,
    "MD": "-.-",
    "ML": 4.1,
    "Mw": "-.-",
    "location": "CICEKALANI-PAZARCIK",
    "city": "(KAHRAMANMARAS)"
  },
  {
    "id": 1534532647,
    "date": "2023.02.06",
    "time": "07:24:32",
    "lat": 40.1988,
    "lng": 27.703,
    "depth": 13.1,
    "MD": "-.-",
    "ML": 4.1,
    "Mw": "-.-",
    "location": "ALAETTINKOY-GONEN",
    "city": "(BALIKESIR)"
  },
  {
    "id": 1533728324,
    "date": "2023.02.06",
    "time": "07:18:45",
    "lat": 38.2092,
    "lng": 38.515,
    "depth": 6.5,
    "MD": "-.-",
    "ML": 5.1,
    "Mw": "-.-",
    "location": "GULUMUSAGI",
    "city": "(MALATYA)"
  },
  {
    "id": 1533668746,
    "date": "2023.02.06",
    "time": "07:16:49",
    "lat": 37.4957,
    "lng": 37.1835,
    "depth": 5.7,
    "MD": "-.-",
    "ML": 4.6,
    "Mw": "-.-",
    "location": "SOGUTLU-PAZARCIK",
    "city": "(KAHRAMANMARAS)"
  },
  {
    "id": 1533609068,
    "date": "2023.02.06",
    "time": "07:14:16",
    "lat": 38.176,
    "lng": 38.5385,
    "depth": 9.5,
    "MD": "-.-",
    "ML": 4,
    "Mw": "-.-",
    "location": "ULUKOY",
    "city": "(MALATYA)"
  },
  {
    "id": 1533579339,
    "date": "2023.02.06",
    "time": "07:13:36",
    "lat": 37.4718,
    "lng": 37.1638,
    "depth": 10.8,
    "MD": "-.-",
    "ML": 3.7,
    "Mw": "-.-",
    "location": "DOGANLIKARAHASAN-PAZARCIK",
    "city": "(KAHRAMANMARAS)"
  },
  {
    "id": 1533579248,
    "date": "2023.02.06",
    "time": "07:13:08",
    "lat": 36.491,
    "lng": 36.2135,
    "depth": 6.3,
    "MD": "-.-",
    "ML": 3.5,
    "Mw": "-.-",
    "location": "BELEN",
    "city": "(HATAY)"
  },
  {
    "id": 1533489993,
    "date": "2023.02.06",
    "time": "07:10:42",
    "lat": 37.6285,
    "lng": 37.3398,
    "depth": 7.9,
    "MD": "-.-",
    "ML": 3.8,
    "Mw": "-.-",
    "location": "KARAAGAC-PAZARCIK",
    "city": "(KAHRAMANMARAS)"
  },
  {
    "id": 1532775016,
    "date": "2023.02.06",
    "time": "07:07:49",
    "lat": 37.1325,
    "lng": 36.6988,
    "depth": 12.3,
    "MD": "-.-",
    "ML": 2.5,
    "Mw": "-.-",
    "location": "KARABURCLU-NURDAGI",
    "city": "(GAZIANTEP)"
  },
  {
    "id": 1532715339,
    "date": "2023.02.06",
    "time": "07:05:17",
    "lat": 37.8215,
    "lng": 37.5253,
    "depth": 10.7,
    "MD": "-.-",
    "ML": 4.2,
    "Mw": "4.0",
    "location": "SAVRAN-GOLBASI",
    "city": "(ADIYAMAN)"
  },
  {
    "id": 1532685577,
    "date": "2023.02.06",
    "time": "07:04:25",
    "lat": 38.0348,
    "lng": 37.3172,
    "depth": 21.8,
    "MD": "-.-",
    "ML": 4.5,
    "Mw": "-.-",
    "location": "BARIS-NURHAK",
    "city": "(KAHRAMANMARAS)"
  },
  {
    "id": 1532655782,
    "date": "2023.02.06",
    "time": "07:03:21",
    "lat": 37.4808,
    "lng": 37.5947,
    "depth": 5,
    "MD": "-.-",
    "ML": 4.1,
    "Mw": "-.-",
    "location": "KOKLUCE-ARABAN",
    "city": "(GAZIANTEP)"
  },
  {
    "id": 1532596173,
    "date": "2023.02.06",
    "time": "07:01:15",
    "lat": 37.2362,
    "lng": 36.8435,
    "depth": 17.1,
    "MD": "-.-",
    "ML": 4,
    "Mw": "-.-",
    "location": "KIRISKAL-NURDAGI",
    "city": "(GAZIANTEP)"
  },
  {
    "id": 649918637,
    "date": "2023.02.06",
    "time": "06:58:18",
    "lat": 36.477,
    "lng": 36.3637,
    "depth": 16.5,
    "MD": "-.-",
    "ML": 4.3,
    "Mw": "-.-",
    "location": "RESATLI-KIRIKHAN",
    "city": "(HATAY)"
  },
  {
    "id": 649829326,
    "date": "2023.02.06",
    "time": "06:55:38",
    "lat": 37.73,
    "lng": 37.5587,
    "depth": 8.4,
    "MD": "-.-",
    "ML": 4.1,
    "Mw": "-.-",
    "location": "BALKAR-GOLBASI",
    "city": "(ADIYAMAN)"
  },
  {
    "id": 649799434,
    "date": "2023.02.06",
    "time": "06:54:00",
    "lat": 37.6995,
    "lng": 37.0892,
    "depth": 16.2,
    "MD": "-.-",
    "ML": 4.1,
    "Mw": "-.-",
    "location": "BAHCELI",
    "city": "(KAHRAMANMARAS)"
  },
  {
    "id": 649739980,
    "date": "2023.02.06",
    "time": "06:52:44",
    "lat": 37.6772,
    "lng": 36.554,
    "depth": 5.5,
    "MD": "-.-",
    "ML": 3.8,
    "Mw": "-.-",
    "location": "CINARPINAR",
    "city": "(KAHRAMANMARAS)"
  },
  {
    "id": 649024937,
    "date": "2023.02.06",
    "time": "06:49:27",
    "lat": 37.344,
    "lng": 36.944,
    "depth": 5.6,
    "MD": "-.-",
    "ML": 3.7,
    "Mw": "-.-",
    "location": "COBANTEPE-TURKOGLU",
    "city": "(KAHRAMANMARAS)"
  },
  {
    "id": 648995204,
    "date": "2023.02.06",
    "time": "06:48:43",
    "lat": 37.3647,
    "lng": 36.9802,
    "depth": 6,
    "MD": "-.-",
    "ML": 3.8,
    "Mw": "-.-",
    "location": "OZBEK-TURKOGLU",
    "city": "(KAHRAMANMARAS)"
  },
  {
    "id": 648905835,
    "date": "2023.02.06",
    "time": "06:45:47",
    "lat": 38.3225,
    "lng": 38.6932,
    "depth": 7.7,
    "MD": "-.-",
    "ML": 4.9,
    "Mw": "-.-",
    "location": "KAMISTAS",
    "city": "(MALATYA)"
  },
  {
    "id": 648786609,
    "date": "2023.02.06",
    "time": "06:41:27",
    "lat": 37.383,
    "lng": 37.1363,
    "depth": 7.3,
    "MD": "-.-",
    "ML": 4.1,
    "Mw": "-.-",
    "location": "NARLI-PAZARCIK",
    "city": "(KAHRAMANMARAS)"
  },
  {
    "id": 647922672,
    "date": "2023.02.06",
    "time": "06:33:29",
    "lat": 39.6595,
    "lng": 41.1865,
    "depth": 8.3,
    "MD": "-.-",
    "ML": 2.6,
    "Mw": "-.-",
    "location": "CUKURCAYIR-CAT",
    "city": "(ERZURUM)"
  },
  {
    "id": 647892967,
    "date": "2023.02.06",
    "time": "06:32:52",
    "lat": 37.3413,
    "lng": 36.844,
    "depth": 8.9,
    "MD": "-.-",
    "ML": 3.9,
    "Mw": "-.-",
    "location": "CECELI-TURKOGLU",
    "city": "(KAHRAMANMARAS)"
  },
  {
    "id": 647833299,
    "date": "2023.02.06",
    "time": "06:30:29",
    "lat": 40.7313,
    "lng": 29.0987,
    "depth": 2.2,
    "MD": "-.-",
    "ML": 2.3,
    "Mw": "-.-",
    "location": "CINARCIK",
    "city": "(YALOVA)"
  },
  {
    "id": 647148163,
    "date": "2023.02.06",
    "time": "06:28:44",
    "lat": 38.216,
    "lng": 38.5395,
    "depth": 5,
    "MD": "-.-",
    "ML": 4.5,
    "Mw": "-.-",
    "location": "GULUMUSAGI",
    "city": "(MALATYA)"
  },
  {
    "id": 647058693,
    "date": "2023.02.06",
    "time": "06:25:10",
    "lat": 37.0937,
    "lng": 36.5767,
    "depth": 3.5,
    "MD": "-.-",
    "ML": 4,
    "Mw": "-.-",
    "location": "SARAYOVA-HASANBEYLI",
    "city": "(OSMANIYE)"
  },
  {
    "id": 646969290,
    "date": "2023.02.06",
    "time": "06:22:01",
    "lat": 37.1255,
    "lng": 36.3817,
    "depth": 7.2,
    "MD": "-.-",
    "ML": 3.6,
    "Mw": "-.-",
    "location": "CAGSAK",
    "city": "(OSMANIYE)"
  },
  {
    "id": 646224643,
    "date": "2023.02.06",
    "time": "06:18:45",
    "lat": 39.3437,
    "lng": 41.0718,
    "depth": 4.4,
    "MD": "-.-",
    "ML": 2.8,
    "Mw": "-.-",
    "location": "YONCALIK-KARLIOVA",
    "city": "(BINGOL)"
  },
  {
    "id": 646164967,
    "date": "2023.02.06",
    "time": "06:16:14",
    "lat": 38.1663,
    "lng": 38.4345,
    "depth": 15.8,
    "MD": "-.-",
    "ML": 4.4,
    "Mw": "-.-",
    "location": "AKSU-SINCIK",
    "city": "(ADIYAMAN)"
  },
  {
    "id": 646045801,
    "date": "2023.02.06",
    "time": "06:12:12",
    "lat": 37.409,
    "lng": 37.3243,
    "depth": 14.2,
    "MD": "-.-",
    "ML": 4,
    "Mw": "-.-",
    "location": "UFACIKLI-PAZARCIK",
    "city": "(KAHRAMANMARAS)"
  },
  {
    "id": 645986248,
    "date": "2023.02.06",
    "time": "06:10:20",
    "lat": 37.9542,
    "lng": 37.8303,
    "depth": 8.6,
    "MD": "-.-",
    "ML": 4.4,
    "Mw": "4.3",
    "location": "KARANLIKDERE-DOGANSEHIR",
    "city": "(MALATYA)"
  },
  {
    "id": 645181956,
    "date": "2023.02.06",
    "time": "06:04:43",
    "lat": 38.1832,
    "lng": 38.5378,
    "depth": 5,
    "MD": "-.-",
    "ML": 4.9,
    "Mw": "4.9",
    "location": "ULUKOY",
    "city": "(MALATYA)"
  },
  {
    "id": 645122287,
    "date": "2023.02.06",
    "time": "06:02:19",
    "lat": 37.8863,
    "lng": 37.8138,
    "depth": 5.3,
    "MD": "-.-",
    "ML": 3.6,
    "Mw": "-.-",
    "location": "CANKARA-GOLBASI",
    "city": "(ADIYAMAN)"
  },
  {
    "id": -237644595,
    "date": "2023.02.06",
    "time": "05:56:28",
    "lat": 36.7308,
    "lng": 36.9762,
    "depth": 5.5,
    "MD": "-.-",
    "ML": 3.5,
    "Mw": "-.-",
    "location": "DURUCA-(KILIS)",
    "city": "REVIZE01"
  },
  {
    "id": -237674448,
    "date": "2023.02.06",
    "time": "05:55:08",
    "lat": 37.3437,
    "lng": 37.0497,
    "depth": 4.5,
    "MD": "-.-",
    "ML": 4.7,
    "Mw": "-.-",
    "location": "EMIROGLU-PAZARCIK",
    "city": "(KAHRAMANMARAS)"
  },
  {
    "id": -237733909,
    "date": "2023.02.06",
    "time": "05:53:45",
    "lat": 38.4433,
    "lng": 39.3423,
    "depth": 12.4,
    "MD": "-.-",
    "ML": 3.8,
    "Mw": "-.-",
    "location": "SIVRICE",
    "city": "(ELAZIG)"
  },
  {
    "id": -237763796,
    "date": "2023.02.06",
    "time": "05:52:12",
    "lat": 38.5287,
    "lng": 40.3335,
    "depth": 6.6,
    "MD": "-.-",
    "ML": 4.1,
    "Mw": "-.-",
    "location": "SARIBUDAK-GENC",
    "city": "(BINGOL)"
  },
  {
    "id": -237823286,
    "date": "2023.02.06",
    "time": "05:50:41",
    "lat": 37.2118,
    "lng": 36.9197,
    "depth": 5.2,
    "MD": "-.-",
    "ML": 3.6,
    "Mw": "-.-",
    "location": "NAIMLER-NURDAGI",
    "city": "(GAZIANTEP)"
  },
  {
    "id": -238508539,
    "date": "2023.02.06",
    "time": "05:48:23",
    "lat": 36.1077,
    "lng": 36.1792,
    "depth": 18.6,
    "MD": "-.-",
    "ML": 4.2,
    "Mw": "-.-",
    "location": "SOFULAR",
    "city": "(HATAY)"
  },
  {
    "id": -238657429,
    "date": "2023.02.06",
    "time": "05:43:46",
    "lat": 36.681,
    "lng": 36.4327,
    "depth": 7.9,
    "MD": "-.-",
    "ML": 4.2,
    "Mw": "-.-",
    "location": "DEMREK-HASSA",
    "city": "(HATAY)"
  },
  {
    "id": -239432123,
    "date": "2023.02.06",
    "time": "05:38:02",
    "lat": 37.6458,
    "lng": 37.3163,
    "depth": 7.1,
    "MD": "-.-",
    "ML": 3.7,
    "Mw": "-.-",
    "location": "BOLUKDAMLAR-CAGLAYANCERIT",
    "city": "(KAHRAMANMARAS)"
  },
  {
    "id": -239491547,
    "date": "2023.02.06",
    "time": "05:36:55",
    "lat": 37.4593,
    "lng": 36.902,
    "depth": 10.9,
    "MD": "-.-",
    "ML": 3.2,
    "Mw": "-.-",
    "location": "CAKALLIHASANAGA-TURKOGLU",
    "city": "(KAHRAMANMARAS)"
  },
  {
    "id": -239551249,
    "date": "2023.02.06",
    "time": "05:34:19",
    "lat": 37.6032,
    "lng": 37.2467,
    "depth": 17.4,
    "MD": "-.-",
    "ML": 4.4,
    "Mw": "-.-",
    "location": "KAZANLIPINAR",
    "city": "(KAHRAMANMARAS)"
  },
  {
    "id": -239581012,
    "date": "2023.02.06",
    "time": "05:33:26",
    "lat": 38.2273,
    "lng": 38.5983,
    "depth": 4.1,
    "MD": "-.-",
    "ML": 3.6,
    "Mw": "-.-",
    "location": "SOGUTLU-PUTURGE",
    "city": "(MALATYA)"
  },
  {
    "id": -239640624,
    "date": "2023.02.06",
    "time": "05:31:17",
    "lat": 36.7273,
    "lng": 36.9037,
    "depth": 12.2,
    "MD": "-.-",
    "ML": 4.8,
    "Mw": "-.-",
    "location": "TURKIYE-SURIYE",
    "city": "SINIR"
  },
  {
    "id": -240355516,
    "date": "2023.02.06",
    "time": "05:28:46",
    "lat": 37.486,
    "lng": 36.9223,
    "depth": 4.9,
    "MD": "-.-",
    "ML": 3.7,
    "Mw": "-.-",
    "location": "SEREFOGLU",
    "city": "(KAHRAMANMARAS)"
  },
  {
    "id": -240415133,
    "date": "2023.02.06",
    "time": "05:26:32",
    "lat": 38.08,
    "lng": 38.2388,
    "depth": 5.5,
    "MD": "-.-",
    "ML": 4.3,
    "Mw": "-.-",
    "location": "GOLBAGI-CELIKHAN",
    "city": "(ADIYAMAN)"
  },
  {
    "id": -240504567,
    "date": "2023.02.06",
    "time": "05:23:13",
    "lat": 37.1628,
    "lng": 36.9292,
    "depth": 5,
    "MD": "-.-",
    "ML": 5.4,
    "Mw": "-.-",
    "location": "SAKCAGOZE-NURDAGI",
    "city": "(GAZIANTEP)"
  },
  {
    "id": -240564143,
    "date": "2023.02.06",
    "time": "05:21:19",
    "lat": 37.5202,
    "lng": 37.094,
    "depth": 1.8,
    "MD": "-.-",
    "ML": 4.6,
    "Mw": "-.-",
    "location": "ELMALAR",
    "city": "(KAHRAMANMARAS)"
  },
  {
    "id": -241308858,
    "date": "2023.02.06",
    "time": "05:17:37",
    "lat": 36.8367,
    "lng": 36.798,
    "depth": 9.8,
    "MD": "-.-",
    "ML": 4.9,
    "Mw": "-.-",
    "location": "GULBABA",
    "city": "(KILIS)"
  },
  {
    "id": -242262205,
    "date": "2023.02.06",
    "time": "05:06:23",
    "lat": 37.8892,
    "lng": 37.9855,
    "depth": 6.6,
    "MD": "-.-",
    "ML": 4.8,
    "Mw": "-.-",
    "location": "ERKENEK-DOGANSEHIR",
    "city": "(MALATYA)"
  },
  {
    "id": -242351545,
    "date": "2023.02.06",
    "time": "05:03:35",
    "lat": 37.8602,
    "lng": 37.8113,
    "depth": 5,
    "MD": "-.-",
    "ML": 5.5,
    "Mw": "-.-",
    "location": "CANKARA-GOLBASI",
    "city": "(ADIYAMAN)"
  },
  {
    "id": -242411097,
    "date": "2023.02.06",
    "time": "05:01:44",
    "lat": 37.2988,
    "lng": 37.0045,
    "depth": 12.6,
    "MD": "-.-",
    "ML": 4.7,
    "Mw": "-.-",
    "location": "CENNETPINARI-PAZARCIK",
    "city": "(KAHRAMANMARAS)"
  },
  {
    "id": -1125058811,
    "date": "2023.02.06",
    "time": "04:59:57",
    "lat": 38.5983,
    "lng": 39.4222,
    "depth": 8.4,
    "MD": "-.-",
    "ML": 4,
    "Mw": "-.-",
    "location": "YENIKAPI",
    "city": "(ELAZIG)"
  },
  {
    "id": -1125088700,
    "date": "2023.02.06",
    "time": "04:58:22",
    "lat": 36.8588,
    "lng": 36.7102,
    "depth": 8.5,
    "MD": "-.-",
    "ML": 5.2,
    "Mw": "-.-",
    "location": "KAZIKLI-ISLAHIYE",
    "city": "(GAZIANTEP)"
  },
  {
    "id": -1125297173,
    "date": "2023.02.06",
    "time": "04:51:44",
    "lat": 37.5143,
    "lng": 37.198,
    "depth": 5,
    "MD": "-.-",
    "ML": 5.1,
    "Mw": "-.-",
    "location": "SOGUTLU-PAZARCIK",
    "city": "(KAHRAMANMARAS)"
  },
  {
    "id": -1126041950,
    "date": "2023.02.06",
    "time": "04:47:42",
    "lat": 38.5642,
    "lng": 40.5523,
    "depth": 2.5,
    "MD": "-.-",
    "ML": 4.3,
    "Mw": "-.-",
    "location": "ORTULU-LICE",
    "city": "(DIYARBAKIR)"
  },
  {
    "id": -1126995320,
    "date": "2023.02.06",
    "time": "04:36:26",
    "lat": 36.8932,
    "lng": 36.7413,
    "depth": 5,
    "MD": "-.-",
    "ML": 5.6,
    "Mw": "-.-",
    "location": "YESEMEK-ISLAHIYE",
    "city": "(GAZIANTEP)"
  },
  {
    "id": -1127859289,
    "date": "2023.02.06",
    "time": "04:28:17",
    "lat": 37.1292,
    "lng": 36.815,
    "depth": 5.7,
    "MD": "-.-",
    "ML": 6.6,
    "Mw": "-.-",
    "location": "DURMUSLAR-NURDAGI",
    "city": "(GAZIANTEP)"
  },
  {
    "id": -1127918777,
    "date": "2023.02.06",
    "time": "04:26:48",
    "lat": 37.2008,
    "lng": 36.9572,
    "depth": 5,
    "MD": "-.-",
    "ML": 5.5,
    "Mw": "-.-",
    "location": "SATIRHUYUK-NURDAGI",
    "city": "(GAZIANTEP)"
  },
  {
    "id": -1128008246,
    "date": "2023.02.06",
    "time": "04:23:15",
    "lat": 37.078,
    "lng": 36.7307,
    "depth": 8.8,
    "MD": "-.-",
    "ML": 4.7,
    "Mw": "-.-",
    "location": "ELBISTANHUYUGU-ISLAHIYE",
    "city": "(GAZIANTEP)"
  },
  {
    "id": -1128812545,
    "date": "2023.02.06",
    "time": "04:17:31",
    "lat": 37.1123,
    "lng": 37.1195,
    "depth": 5,
    "MD": "-.-",
    "ML": 7.4,
    "Mw": "7.7",
    "location": "SOFALACA-SEHITKAMIL",
    "city": "(GAZIANTEP)"
  },
  {
    "id": -2016346110,
    "date": "2023.02.06",
    "time": "03:16:01",
    "lat": 41.1913,
    "lng": 44.0533,
    "depth": 6.3,
    "MD": "-.-",
    "ML": 3.3,
    "Mw": "3.4",
    "location": "GURCISTAN",
    "city": "Bilinmiyor"
  },
  {
    "id": -2016375742,
    "date": "2023.02.06",
    "time": "03:15:55",
    "lat": 38.733,
    "lng": 43.2393,
    "depth": 5,
    "MD": "-.-",
    "ML": 2.4,
    "Mw": "-.-",
    "location": "OZYURT",
    "city": "(VAN)"
  },
  {
    "id": 1394811659,
    "date": "2023.02.06",
    "time": "02:56:29",
    "lat": 37.0913,
    "lng": 28.37,
    "depth": 13.3,
    "MD": "-.-",
    "ML": 2,
    "Mw": "-.-",
    "location": "KIZILAGAC-ULA",
    "city": "(MUGLA)"
  },
  {
    "id": -384753796,
    "date": "2023.02.06",
    "time": "00:08:01",
    "lat": 38.4833,
    "lng": 39.2502,
    "depth": 1.6,
    "MD": "-.-",
    "ML": 1.7,
    "Mw": "-.-",
    "location": "ALINCIK-SIVRICE",
    "city": "(ELAZIG)"
  },
  {
    "id": -1017255105,
    "date": "2023.02.05",
    "time": "23:28:24",
    "lat": 39.7103,
    "lng": 43.05,
    "depth": 7.9,
    "MD": "-.-",
    "ML": 1.3,
    "Mw": "-.-",
    "location": "AGRI",
    "city": "Bilinmiyor"
  },
  {
    "id": -1017314622,
    "date": "2023.02.05",
    "time": "23:26:47",
    "lat": 40.6608,
    "lng": 30.4828,
    "depth": 3.6,
    "MD": "-.-",
    "ML": 1.1,
    "Mw": "-.-",
    "location": "KARAPURCEK",
    "city": "(SAKARYA)"
  },
  {
    "id": -1017344420,
    "date": "2023.02.05",
    "time": "23:25:40",
    "lat": 39.4027,
    "lng": 26.1885,
    "depth": 11.4,
    "MD": "-.-",
    "ML": 2.8,
    "Mw": "-.-",
    "location": "MIDILLI",
    "city": "ADASI"
  },
  {
    "id": -1019102083,
    "date": "2023.02.05",
    "time": "23:08:46",
    "lat": 39.4133,
    "lng": 26.3043,
    "depth": 21.8,
    "MD": "-.-",
    "ML": 1.8,
    "Mw": "-.-",
    "location": "EDREMIT",
    "city": "KORFEZI"
  },
  {
    "id": -1902941598,
    "date": "2023.02.05",
    "time": "22:47:03",
    "lat": 39.4282,
    "lng": 26.286,
    "depth": 22.2,
    "MD": "-.-",
    "ML": 1.8,
    "Mw": "-.-",
    "location": "EDREMIT",
    "city": "KORFEZI"
  },
  {
    "id": -1903090393,
    "date": "2023.02.05",
    "time": "22:42:58",
    "lat": 38.3487,
    "lng": 27.2055,
    "depth": 13,
    "MD": "-.-",
    "ML": 1.7,
    "Mw": "-.-",
    "location": "ZAFER-BUCA",
    "city": "(IZMIR)"
  },
  {
    "id": -1904967263,
    "date": "2023.02.05",
    "time": "22:21:42",
    "lat": 42.2602,
    "lng": 25.892,
    "depth": 13.9,
    "MD": "-.-",
    "ML": 2.8,
    "Mw": "-.-",
    "location": "BULGARISTAN",
    "city": "Bilinmiyor"
  },
  {
    "id": 1505415839,
    "date": "2023.02.05",
    "time": "21:56:32",
    "lat": 38.3705,
    "lng": 27.2637,
    "depth": 8.1,
    "MD": "-.-",
    "ML": 1.4,
    "Mw": "-.-",
    "location": "GOKDERE-BORNOVA",
    "city": "(IZMIR)"
  },
  {
    "id": 1503509187,
    "date": "2023.02.05",
    "time": "21:34:25",
    "lat": 38.5837,
    "lng": 44.9742,
    "depth": 5,
    "MD": "-.-",
    "ML": 2.3,
    "Mw": "-.-",
    "location": "IRAN",
    "city": "Bilinmiyor"
  },
  {
    "id": 1502585692,
    "date": "2023.02.05",
    "time": "21:24:30",
    "lat": 38.6093,
    "lng": 31.0925,
    "depth": 4.9,
    "MD": "-.-",
    "ML": 1.1,
    "Mw": "-.-",
    "location": "CAYIRPINAR-CAY",
    "city": "(AFYONKARAHISAR)"
  },
  {
    "id": 1502585603,
    "date": "2023.02.05",
    "time": "21:24:04",
    "lat": 38.6042,
    "lng": 31.1255,
    "depth": 15.7,
    "MD": "-.-",
    "ML": 1.2,
    "Mw": "-.-",
    "location": "EBER-CAY",
    "city": "(AFYONKARAHISAR)"
  },
  {
    "id": 1502496321,
    "date": "2023.02.05",
    "time": "21:21:32",
    "lat": 37.1773,
    "lng": 35.2148,
    "depth": 20,
    "MD": "-.-",
    "ML": 1.1,
    "Mw": "-.-",
    "location": "KIRIKLI-KARAISALI",
    "city": "(ADANA)"
  },
  {
    "id": 1501721757,
    "date": "2023.02.05",
    "time": "21:16:34",
    "lat": 37.3748,
    "lng": 35.8753,
    "depth": 20.7,
    "MD": "-.-",
    "ML": 1.3,
    "Mw": "-.-",
    "location": "KUYULUK-KOZAN",
    "city": "(ADANA)"
  },
  {
    "id": 616094968,
    "date": "2023.02.05",
    "time": "20:37:51",
    "lat": 38.5553,
    "lng": 44.9128,
    "depth": 5,
    "MD": "-.-",
    "ML": 2,
    "Mw": "-.-",
    "location": "TURKIYE-IRAN",
    "city": "SINIR"
  },
  {
    "id": 615886403,
    "date": "2023.02.05",
    "time": "20:30:44",
    "lat": 38.535,
    "lng": 44.9402,
    "depth": 5,
    "MD": "-.-",
    "ML": 2.5,
    "Mw": "-.-",
    "location": "IRAN",
    "city": "Bilinmiyor"
  },
  {
    "id": 614039331,
    "date": "2023.02.05",
    "time": "20:10:35",
    "lat": 37.8377,
    "lng": 34.983,
    "depth": 28.2,
    "MD": "-.-",
    "ML": 1.1,
    "Mw": "-.-",
    "location": "CAMARDI",
    "city": "(NIGDE)"
  },
  {
    "id": -1728133719,
    "date": "2023.02.05",
    "time": "19:49:59",
    "lat": 38.2938,
    "lng": 27.1648,
    "depth": 10.5,
    "MD": "-.-",
    "ML": 1.5,
    "Mw": "-.-",
    "location": "KISIK-MENDERES",
    "city": "(IZMIR)"
  },
  {
    "id": -1728282680,
    "date": "2023.02.05",
    "time": "19:44:53",
    "lat": 39.9292,
    "lng": 41.911,
    "depth": 9,
    "MD": "-.-",
    "ML": 1.4,
    "Mw": "-.-",
    "location": "YAGAN-KOPRUKOY",
    "city": "(ERZURUM)"
  },
  {
    "id": -1728312528,
    "date": "2023.02.05",
    "time": "19:43:38",
    "lat": 39.5813,
    "lng": 38.4907,
    "depth": 5,
    "MD": "-.-",
    "ML": 2.3,
    "Mw": "-.-",
    "location": "DORUKSARAY-ILIC",
    "city": "(ERZINCAN)"
  },
  {
    "id": -1731023601,
    "date": "2023.02.05",
    "time": "19:15:09",
    "lat": 40.6733,
    "lng": 30.437,
    "depth": 7.5,
    "MD": "-.-",
    "ML": 2.9,
    "Mw": "-.-",
    "location": "KAYALARRESITBEY-ERENLER",
    "city": "(SAKARYA)"
  },
  {
    "id": 1679329865,
    "date": "2023.02.05",
    "time": "18:49:49",
    "lat": 40.8027,
    "lng": 31.0297,
    "depth": 5.7,
    "MD": "-.-",
    "ML": 2.5,
    "Mw": "-.-",
    "location": "ICMELER-GOLYAKA",
    "city": "(DUZCE)"
  },
  {
    "id": 1678406248,
    "date": "2023.02.05",
    "time": "18:39:16",
    "lat": 37.9472,
    "lng": 35.0757,
    "depth": 5.5,
    "MD": "-.-",
    "ML": 1.4,
    "Mw": "-.-",
    "location": "BADEMDERE-CAMARDI",
    "city": "(NIGDE)"
  },
  {
    "id": 1675486727,
    "date": "2023.02.05",
    "time": "18:04:13",
    "lat": 38.5698,
    "lng": 44.9897,
    "depth": 5,
    "MD": "-.-",
    "ML": 2.5,
    "Mw": "-.-",
    "location": "IRAN",
    "city": "Bilinmiyor"
  },
  {
    "id": 789800426,
    "date": "2023.02.05",
    "time": "17:23:58",
    "lat": 40.2632,
    "lng": 43.0957,
    "depth": 29.4,
    "MD": "-.-",
    "ML": 1.5,
    "Mw": "-.-",
    "location": "SABANKOY-KAGIZMAN",
    "city": "(KARS)"
  },
  {
    "id": 788876897,
    "date": "2023.02.05",
    "time": "17:13:50",
    "lat": 36.3467,
    "lng": 42.2032,
    "depth": 4.8,
    "MD": "-.-",
    "ML": 2.6,
    "Mw": "-.-",
    "location": "IRAK-SURIYE",
    "city": "SINIR"
  },
  {
    "id": -94962521,
    "date": "2023.02.05",
    "time": "16:52:41",
    "lat": 35.5083,
    "lng": 36.1673,
    "depth": 27.9,
    "MD": "-.-",
    "ML": 1.9,
    "Mw": "-.-",
    "location": "SURIYE",
    "city": "Bilinmiyor"
  },
  {
    "id": -983181149,
    "date": "2023.02.05",
    "time": "15:49:57",
    "lat": 40.8058,
    "lng": 27.7863,
    "depth": 18.8,
    "MD": "-.-",
    "ML": 3.6,
    "Mw": "-.-",
    "location": "MARMARA",
    "city": "DENIZI"
  },
  {
    "id": -985981571,
    "date": "2023.02.05",
    "time": "15:18:31",
    "lat": 40.164,
    "lng": 41.9892,
    "depth": 8.3,
    "MD": "-.-",
    "ML": 1.8,
    "Mw": "-.-",
    "location": "MURATBAGI-HORASAN",
    "city": "(ERZURUM)"
  },
  {
    "id": 1537702307,
    "date": "2023.02.05",
    "time": "13:59:58",
    "lat": 40.8113,
    "lng": 31.0832,
    "depth": 7.6,
    "MD": "-.-",
    "ML": 1.6,
    "Mw": "-.-",
    "location": "PASAKONAGI",
    "city": "(DUZCE)"
  },
  {
    "id": 1533054843,
    "date": "2023.02.05",
    "time": "13:08:32",
    "lat": 38.4718,
    "lng": 32.7073,
    "depth": 8,
    "MD": "-.-",
    "ML": 1.5,
    "Mw": "-.-",
    "location": "AYISIGI-ALTINEKIN",
    "city": "(KONYA)"
  },
  {
    "id": 650079366,
    "date": "2023.02.05",
    "time": "12:55:25",
    "lat": 35.7055,
    "lng": 36.5878,
    "depth": 5,
    "MD": "-.-",
    "ML": 1.9,
    "Mw": "-.-",
    "location": "SURIYE",
    "city": "Bilinmiyor"
  },
  {
    "id": 645521404,
    "date": "2023.02.05",
    "time": "12:07:44",
    "lat": 38.3333,
    "lng": 45.2742,
    "depth": 64.8,
    "MD": "-.-",
    "ML": 3.9,
    "Mw": "-.-",
    "location": "IRAN",
    "city": "Bilinmiyor"
  },
  {
    "id": -237334977,
    "date": "2023.02.05",
    "time": "11:58:11",
    "lat": 37.9587,
    "lng": 35.1048,
    "depth": 5,
    "MD": "-.-",
    "ML": 2,
    "Mw": "-.-",
    "location": "KAVLAKTEPE-CAMARDI",
    "city": "(NIGDE)"
  },
  {
    "id": -1126685732,
    "date": "2023.02.05",
    "time": "10:38:00",
    "lat": 38.3492,
    "lng": 27.2023,
    "depth": 4.7,
    "MD": "-.-",
    "ML": 1.9,
    "Mw": "-.-",
    "location": "ZAFER-BUCA",
    "city": "(IZMIR)"
  },
  {
    "id": -1126804834,
    "date": "2023.02.05",
    "time": "10:34:20",
    "lat": 41.9252,
    "lng": 29.6677,
    "depth": 7.3,
    "MD": "-.-",
    "ML": 2.6,
    "Mw": "-.-",
    "location": "KARADENIZ",
    "city": "Bilinmiyor"
  },
  {
    "id": -1126864476,
    "date": "2023.02.05",
    "time": "10:32:02",
    "lat": 38.3465,
    "lng": 27.169,
    "depth": 12,
    "MD": "-.-",
    "ML": 3.2,
    "Mw": "3.2",
    "location": "GAZIEMIR",
    "city": "(IZMIR)"
  },
  {
    "id": -1127787835,
    "date": "2023.02.05",
    "time": "10:22:59",
    "lat": 37.911,
    "lng": 27.0688,
    "depth": 11.6,
    "MD": "-.-",
    "ML": 1.9,
    "Mw": "-.-",
    "location": "KUSADASI",
    "city": "KORFEZI"
  },
  {
    "id": -1127817630,
    "date": "2023.02.05",
    "time": "10:21:55",
    "lat": 37.9785,
    "lng": 27.1613,
    "depth": 6.6,
    "MD": "-.-",
    "ML": 1.9,
    "Mw": "-.-",
    "location": "KUSADASI",
    "city": "KORFEZI"
  },
  {
    "id": 821222733,
    "date": "2023.02.05",
    "time": "09:18:09",
    "lat": 38.352,
    "lng": 27.174,
    "depth": 11.2,
    "MD": "-.-",
    "ML": 3.1,
    "Mw": "3.1",
    "location": "GAZIEMIR",
    "city": "(IZMIR)"
  },
  {
    "id": 820239779,
    "date": "2023.02.05",
    "time": "09:06:53",
    "lat": 35.1487,
    "lng": 34.071,
    "depth": 7.1,
    "MD": "-.-",
    "ML": 3.6,
    "Mw": "3.6",
    "location": "AKDENIZ",
    "city": "Bilinmiyor"
  },
  {
    "id": -63659340,
    "date": "2023.02.05",
    "time": "08:43:09",
    "lat": 37.9642,
    "lng": 35.0848,
    "depth": 5.2,
    "MD": "-.-",
    "ML": 1.1,
    "Mw": "-.-",
    "location": "KAVLAKTEPE-CAMARDI",
    "city": "(NIGDE)"
  },
  {
    "id": -951073562,
    "date": "2023.02.05",
    "time": "07:46:32",
    "lat": 36.7867,
    "lng": 26.008,
    "depth": 5,
    "MD": "-.-",
    "ML": 2.8,
    "Mw": "-.-",
    "location": "AKDENIZ",
    "city": "Bilinmiyor"
  },
  {
    "id": -952920694,
    "date": "2023.02.05",
    "time": "07:26:05",
    "lat": 37.3923,
    "lng": 36.0403,
    "depth": 8.1,
    "MD": "-.-",
    "ML": 1.7,
    "Mw": "-.-",
    "location": "AZAPLI-KADIRLI",
    "city": "(OSMANIYE)"
  },
  {
    "id": -953844063,
    "date": "2023.02.05",
    "time": "07:16:52",
    "lat": 37.4537,
    "lng": 36.0402,
    "depth": 4.3,
    "MD": "-.-",
    "ML": 2,
    "Mw": "-.-",
    "location": "ARMAGANLI-SUMBAS",
    "city": "(OSMANIYE)"
  },
  {
    "id": -1837832403,
    "date": "2023.02.05",
    "time": "06:50:55",
    "lat": 36.6365,
    "lng": 25.8043,
    "depth": 7.2,
    "MD": "-.-",
    "ML": 2.2,
    "Mw": "-.-",
    "location": "AKDENIZ",
    "city": "Bilinmiyor"
  },
  {
    "id": -1841288220,
    "date": "2023.02.05",
    "time": "06:18:36",
    "lat": 38.5393,
    "lng": 39.2352,
    "depth": 7.8,
    "MD": "-.-",
    "ML": 1.8,
    "Mw": "-.-",
    "location": "GOZEBASI",
    "city": "(ELAZIG)"
  },
  {
    "id": -1841377591,
    "date": "2023.02.05",
    "time": "06:15:38",
    "lat": 37.842,
    "lng": 29.2592,
    "depth": 16.8,
    "MD": "-.-",
    "ML": 1.3,
    "Mw": "-.-",
    "location": "GURLEYIK-HONAZ",
    "city": "(DENIZLI)"
  },
  {
    "id": 1567992613,
    "date": "2023.02.05",
    "time": "05:37:24",
    "lat": 38.3957,
    "lng": 42.6115,
    "depth": 5.1,
    "MD": "-.-",
    "ML": 2.3,
    "Mw": "-.-",
    "location": "YEDIVEREN-TATVAN",
    "city": "(BITLIS)"
  },
  {
    "id": 678701439,
    "date": "2023.02.05",
    "time": "04:19:12",
    "lat": 36.8878,
    "lng": 29.0145,
    "depth": 2.1,
    "MD": "-.-",
    "ML": 2.6,
    "Mw": "-.-",
    "location": "TASBASI-DALAMAN",
    "city": "(MUGLA)"
  },
  {
    "id": -208921430,
    "date": "2023.02.05",
    "time": "03:15:09",
    "lat": 41.0978,
    "lng": 28.9602,
    "depth": 12.1,
    "MD": "-.-",
    "ML": 3.2,
    "Mw": "3.1",
    "location": "KAGITHANE",
    "city": "(ISTANBUL)"
  },
  {
    "id": -1094697204,
    "date": "2023.02.05",
    "time": "02:31:17",
    "lat": 40.7628,
    "lng": 30.8533,
    "depth": 2.9,
    "MD": "-.-",
    "ML": 1.5,
    "Mw": "-.-",
    "location": "DEGIRMENTEPE-GOLYAKA",
    "city": "(DUZCE)"
  },
  {
    "id": -1095650514,
    "date": "2023.02.05",
    "time": "02:20:19",
    "lat": 40.6595,
    "lng": 30.4495,
    "depth": 16.1,
    "MD": "-.-",
    "ML": 2.5,
    "Mw": "-.-",
    "location": "DEGIRMENDERE-ERENLER",
    "city": "(SAKARYA)"
  },
  {
    "id": -1981128447,
    "date": "2023.02.05",
    "time": "01:46:00",
    "lat": 37.9762,
    "lng": 27.021,
    "depth": 5.5,
    "MD": "-.-",
    "ML": 2,
    "Mw": "-.-",
    "location": "KUSADASI",
    "city": "KORFEZI"
  },
  {
    "id": -1981217819,
    "date": "2023.02.05",
    "time": "01:43:01",
    "lat": 38.4238,
    "lng": 42.6192,
    "depth": 7.3,
    "MD": "-.-",
    "ML": 1.3,
    "Mw": "-.-",
    "location": "UNCULAR-TATVAN",
    "city": "(BITLIS)"
  },
  {
    "id": 1425352097,
    "date": "2023.02.05",
    "time": "00:34:11",
    "lat": 38.653,
    "lng": 42.0135,
    "depth": 17.7,
    "MD": "-.-",
    "ML": 1.1,
    "Mw": "-.-",
    "location": "BUDAKLI-GUROYMAK",
    "city": "(BITLIS)"
  },
  {
    "id": 1424309544,
    "date": "2023.02.05",
    "time": "00:20:59",
    "lat": 38.969,
    "lng": 27.8853,
    "depth": 15,
    "MD": "-.-",
    "ML": 0.9,
    "Mw": "-.-",
    "location": "CAMONU-AKHISAR",
    "city": "(MANISA)"
  },
  {
    "id": 1422611359,
    "date": "2023.02.05",
    "time": "00:05:24",
    "lat": 40.6618,
    "lng": 30.4545,
    "depth": 14,
    "MD": "-.-",
    "ML": 1.9,
    "Mw": "-.-",
    "location": "DEGIRMENDERE-ERENLER",
    "city": "(SAKARYA)"
  },
  {
    "id": 791897478,
    "date": "2023.02.04",
    "time": "23:43:36",
    "lat": 40.4888,
    "lng": 29.142,
    "depth": 3.2,
    "MD": "-.-",
    "ML": 1.5,
    "Mw": "-.-",
    "location": "HAYDARIYE-GEMLIK",
    "city": "(BURSA)"
  },
  {
    "id": 790944198,
    "date": "2023.02.04",
    "time": "23:32:47",
    "lat": 38.3232,
    "lng": 27.2372,
    "depth": 5,
    "MD": "-.-",
    "ML": 1.1,
    "Mw": "-.-",
    "location": "ZAFER-BUCA",
    "city": "(IZMIR)"
  },
  {
    "id": 788352287,
    "date": "2023.02.04",
    "time": "23:08:16",
    "lat": 40.1495,
    "lng": 27.3343,
    "depth": 10.7,
    "MD": "-.-",
    "ML": 2.4,
    "Mw": "-.-",
    "location": "ARABAALAN-BIGA",
    "city": "(CANAKKALE)"
  },
  {
    "id": -94593276,
    "date": "2023.02.04",
    "time": "22:56:48",
    "lat": 40.8427,
    "lng": 28.7483,
    "depth": 12,
    "MD": "-.-",
    "ML": 1.5,
    "Mw": "-.-",
    "location": "AVCILAR",
    "city": "ACIKLARI-ISTANBUL"
  },
  {
    "id": -96529757,
    "date": "2023.02.04",
    "time": "22:33:24",
    "lat": 40.788,
    "lng": 30.9537,
    "depth": 4.6,
    "MD": "-.-",
    "ML": 1.7,
    "Mw": "-.-",
    "location": "YESILOVA-GOLYAKA",
    "city": "(DUZCE)"
  },
  {
    "id": -983973764,
    "date": "2023.02.04",
    "time": "21:35:53",
    "lat": 37.8182,
    "lng": 27.011,
    "depth": 10.4,
    "MD": "-.-",
    "ML": 1.5,
    "Mw": "-.-",
    "location": "KUSADASI",
    "city": "KORFEZI"
  },
  {
    "id": -984063171,
    "date": "2023.02.04",
    "time": "21:32:40",
    "lat": 37.8165,
    "lng": 27.0098,
    "depth": 8.2,
    "MD": "-.-",
    "ML": 1.9,
    "Mw": "-.-",
    "location": "KUSADASI",
    "city": "KORFEZI"
  },
  {
    "id": -984122775,
    "date": "2023.02.04",
    "time": "21:30:39",
    "lat": 37.7948,
    "lng": 27.0078,
    "depth": 4.2,
    "MD": "-.-",
    "ML": 2.1,
    "Mw": "-.-",
    "location": "KUSADASI",
    "city": "KORFEZI"
  },
  {
    "id": -986684841,
    "date": "2023.02.04",
    "time": "21:07:20",
    "lat": 39.1048,
    "lng": 28.1653,
    "depth": 5.3,
    "MD": "-.-",
    "ML": 1.7,
    "Mw": "-.-",
    "location": "KINIK-SINDIRGI",
    "city": "(BALIKESIR)"
  },
  {
    "id": -1869541119,
    "date": "2023.02.04",
    "time": "20:58:27",
    "lat": 37.0295,
    "lng": 28.3053,
    "depth": 5,
    "MD": "-.-",
    "ML": 1.4,
    "Mw": "-.-",
    "location": "CETIBELI-MARMARIS",
    "city": "(MUGLA)"
  },
  {
    "id": -1872311625,
    "date": "2023.02.04",
    "time": "20:28:42",
    "lat": 39.0392,
    "lng": 28.6127,
    "depth": 5.3,
    "MD": "-.-",
    "ML": 2.9,
    "Mw": "-.-",
    "location": "YESILOBA-DEMIRCI",
    "city": "(MANISA)"
  },
  {
    "id": -1874307680,
    "date": "2023.02.04",
    "time": "20:03:26",
    "lat": 37.1483,
    "lng": 27.7858,
    "depth": 0,
    "MD": "-.-",
    "ML": 1,
    "Mw": "-.-",
    "location": "KARACAHISAR-MILAS",
    "city": "(MUGLA)"
  },
  {
    "id": 80125101,
    "date": "2023.02.04",
    "time": "19:55:59",
    "lat": 36.9028,
    "lng": 36.9457,
    "depth": 5.4,
    "MD": "-.-",
    "ML": 1.3,
    "Mw": "-.-",
    "location": "BALIKLI-MUSABEYLI",
    "city": "(KILIS)"
  },
  {
    "id": 78307691,
    "date": "2023.02.04",
    "time": "19:36:05",
    "lat": 40.624,
    "lng": 35.5853,
    "depth": 11.4,
    "MD": "-.-",
    "ML": 1.5,
    "Mw": "-.-",
    "location": "DOGANTEPE",
    "city": "(AMASYA)"
  },
  {
    "id": 77265010,
    "date": "2023.02.04",
    "time": "19:22:09",
    "lat": 35.6985,
    "lng": 31.7615,
    "depth": 9.6,
    "MD": "-.-",
    "ML": 2.4,
    "Mw": "-.-",
    "location": "AKDENIZ",
    "city": "Bilinmiyor"
  },
  {
    "id": 77235369,
    "date": "2023.02.04",
    "time": "19:21:54",
    "lat": 37.9472,
    "lng": 32.2493,
    "depth": 2.1,
    "MD": "-.-",
    "ML": 1.2,
    "Mw": "-.-",
    "location": "ULUMUHSINE-SELCUKLU",
    "city": "(KONYA)"
  },
  {
    "id": 76341578,
    "date": "2023.02.04",
    "time": "19:12:35",
    "lat": 39.0308,
    "lng": 28.6003,
    "depth": 11.9,
    "MD": "-.-",
    "ML": 1.4,
    "Mw": "-.-",
    "location": "YESILOBA-DEMIRCI",
    "city": "(MANISA)"
  },
  {
    "id": 75537130,
    "date": "2023.02.04",
    "time": "19:06:07",
    "lat": 38.9792,
    "lng": 41.6087,
    "depth": 11.8,
    "MD": "-.-",
    "ML": 1.8,
    "Mw": "-.-",
    "location": "SARIDAL",
    "city": "(MUS)"
  },
  {
    "id": -808212888,
    "date": "2023.02.04",
    "time": "18:48:04",
    "lat": 39.0368,
    "lng": 28.61,
    "depth": 5.4,
    "MD": "-.-",
    "ML": 2.2,
    "Mw": "-.-",
    "location": "YESILOBA-DEMIRCI",
    "city": "(MANISA)"
  },
  {
    "id": -811102588,
    "date": "2023.02.04",
    "time": "18:14:10",
    "lat": 37.8623,
    "lng": 32.3755,
    "depth": 8.3,
    "MD": "-.-",
    "ML": 1.3,
    "Mw": "-.-",
    "location": "KONYA",
    "city": "Bilinmiyor"
  },
  {
    "id": -1697682715,
    "date": "2023.02.04",
    "time": "17:24:22",
    "lat": 37.7962,
    "lng": 27.0118,
    "depth": 5.1,
    "MD": "-.-",
    "ML": 1.9,
    "Mw": "-.-",
    "location": "KUSADASI",
    "city": "KORFEZI"
  },
  {
    "id": -1698516795,
    "date": "2023.02.04",
    "time": "17:17:48",
    "lat": 37.9017,
    "lng": 32.4667,
    "depth": 6.7,
    "MD": "-.-",
    "ML": 0.9,
    "Mw": "-.-",
    "location": "SELCUKLU",
    "city": "(KONYA)"
  },
  {
    "id": -1698665783,
    "date": "2023.02.04",
    "time": "17:12:36",
    "lat": 37.8165,
    "lng": 27.0073,
    "depth": 5.2,
    "MD": "-.-",
    "ML": 2.3,
    "Mw": "-.-",
    "location": "KUSADASI",
    "city": "KORFEZI"
  },
  {
    "id": -1699499905,
    "date": "2023.02.04",
    "time": "17:05:41",
    "lat": 37.8612,
    "lng": 32.385,
    "depth": 5.4,
    "MD": "-.-",
    "ML": 1.3,
    "Mw": "-.-",
    "location": "KONYA",
    "city": "Bilinmiyor"
  },
  {
    "id": 1712670695,
    "date": "2023.02.04",
    "time": "16:58:48",
    "lat": 37.9292,
    "lng": 32.2962,
    "depth": 6.5,
    "MD": "-.-",
    "ML": 1.4,
    "Mw": "-.-",
    "location": "KUCUKMUHSINE-SELCUKLU",
    "city": "(KONYA)"
  },
  {
    "id": 1712611083,
    "date": "2023.02.04",
    "time": "16:56:39",
    "lat": 37.8782,
    "lng": 32.3115,
    "depth": 6.6,
    "MD": "-.-",
    "ML": 1.7,
    "Mw": "-.-",
    "location": "KUCUKMUHSINE-SELCUKLU",
    "city": "(KONYA)"
  },
  {
    "id": 1712581195,
    "date": "2023.02.04",
    "time": "16:55:05",
    "lat": 37.889,
    "lng": 32.3167,
    "depth": 5.4,
    "MD": "-.-",
    "ML": 1.6,
    "Mw": "-.-",
    "location": "KUCUKMUHSINE-SELCUKLU",
    "city": "(KONYA)"
  },
  {
    "id": 1711747106,
    "date": "2023.02.04",
    "time": "16:48:22",
    "lat": 37.8722,
    "lng": 32.374,
    "depth": 6.2,
    "MD": "-.-",
    "ML": 1.5,
    "Mw": "-.-",
    "location": "KONYA",
    "city": "Bilinmiyor"
  },
  {
    "id": 1710734219,
    "date": "2023.02.04",
    "time": "16:35:29",
    "lat": 37.862,
    "lng": 32.3863,
    "depth": 5.3,
    "MD": "-.-",
    "ML": 1.6,
    "Mw": "-.-",
    "location": "KONYA",
    "city": "Bilinmiyor"
  },
  {
    "id": 823349670,
    "date": "2023.02.04",
    "time": "15:39:18",
    "lat": 37.872,
    "lng": 32.2892,
    "depth": 0,
    "MD": "-.-",
    "ML": 1.6,
    "Mw": "-.-",
    "location": "KUCUKMUHSINE-SELCUKLU",
    "city": "(KONYA)"
  },
  {
    "id": 822366562,
    "date": "2023.02.04",
    "time": "15:27:13",
    "lat": 38.8025,
    "lng": 43.546,
    "depth": 5,
    "MD": "-.-",
    "ML": 2.1,
    "Mw": "-.-",
    "location": "DEGIRMENOZU",
    "city": "(VAN)"
  },
  {
    "id": -1841008323,
    "date": "2023.02.04",
    "time": "12:19:47",
    "lat": 36.3933,
    "lng": 31.2993,
    "depth": 5,
    "MD": "-.-",
    "ML": 2,
    "Mw": "-.-",
    "location": "ANTALYA",
    "city": "KORFEZI"
  },
  {
    "id": -1841038149,
    "date": "2023.02.04",
    "time": "12:18:33",
    "lat": 37.8725,
    "lng": 32.2927,
    "depth": 0,
    "MD": "-.-",
    "ML": 1.5,
    "Mw": "-.-",
    "location": "KUCUKMUHSINE-SELCUKLU",
    "city": "(KONYA)"
  },
  {
    "id": -1842021217,
    "date": "2023.02.04",
    "time": "12:06:47",
    "lat": 38.177,
    "lng": 43.0505,
    "depth": 6.7,
    "MD": "-.-",
    "ML": 1.8,
    "Mw": "-.-",
    "location": "UZUNTEKNE-CATAK",
    "city": "(VAN)"
  },
  {
    "id": 1567348899,
    "date": "2023.02.04",
    "time": "11:28:08",
    "lat": 37.3958,
    "lng": 36.4363,
    "depth": 5.6,
    "MD": "-.-",
    "ML": 1.7,
    "Mw": "-.-",
    "location": "SUMAKLI-ANDIRIN",
    "city": "(KAHRAMANMARAS)"
  },
  {
    "id": 1567170183,
    "date": "2023.02.04",
    "time": "11:22:17",
    "lat": 37.3813,
    "lng": 36.2883,
    "depth": 5,
    "MD": "-.-",
    "ML": 2.8,
    "Mw": "-.-",
    "location": "KIYIKCI-ANDIRIN",
    "city": "(KAHRAMANMARAS)"
  },
  {
    "id": 682586111,
    "date": "2023.02.04",
    "time": "10:57:45",
    "lat": 37.8718,
    "lng": 32.3357,
    "depth": 0,
    "MD": "-.-",
    "ML": 1.8,
    "Mw": "-.-",
    "location": "KUCUKMUHSINE-SELCUKLU",
    "city": "(KONYA)"
  },
  {
    "id": 682377578,
    "date": "2023.02.04",
    "time": "10:50:49",
    "lat": 38.0967,
    "lng": 25.886,
    "depth": 4.7,
    "MD": "-.-",
    "ML": 2,
    "Mw": "-.-",
    "location": "SAKIZ",
    "city": "ADASI"
  },
  {
    "id": -1666349688,
    "date": "2023.02.04",
    "time": "09:16:03",
    "lat": 37.8673,
    "lng": 32.358,
    "depth": 8,
    "MD": "-.-",
    "ML": 1.8,
    "Mw": "-.-",
    "location": "KUCUKMUHSINE-SELCUKLU",
    "city": "(KONYA)"
  },
  {
    "id": -1667362483,
    "date": "2023.02.04",
    "time": "09:03:39",
    "lat": 40.7682,
    "lng": 34.9722,
    "depth": 6,
    "MD": "-.-",
    "ML": 4,
    "Mw": "3.9",
    "location": "SITMA-LACIN",
    "city": "(CORUM)"
  },
  {
    "id": 1743824975,
    "date": "2023.02.04",
    "time": "08:44:28",
    "lat": 37.8913,
    "lng": 32.2622,
    "depth": 6.8,
    "MD": "-.-",
    "ML": 1.6,
    "Mw": "-.-",
    "location": "ULUMUHSINE-SELCUKLU",
    "city": "(KONYA)"
  },
  {
    "id": 1742067397,
    "date": "2023.02.04",
    "time": "08:27:56",
    "lat": 37.8788,
    "lng": 29.4505,
    "depth": 1.5,
    "MD": "-.-",
    "ML": 2.2,
    "Mw": "-.-",
    "location": "YOKUSBASI-HONAZ",
    "city": "(DENIZLI)"
  },
  {
    "id": 1741858735,
    "date": "2023.02.04",
    "time": "08:20:15",
    "lat": 37.8792,
    "lng": 32.2877,
    "depth": 6.9,
    "MD": "-.-",
    "ML": 1.7,
    "Mw": "-.-",
    "location": "KUCUKMUHSINE-SELCUKLU",
    "city": "(KONYA)"
  },
  {
    "id": 857304486,
    "date": "2023.02.04",
    "time": "07:56:54",
    "lat": 40.6697,
    "lng": 30.458,
    "depth": 13,
    "MD": "-.-",
    "ML": 1,
    "Mw": "-.-",
    "location": "KAYALARRESITBEY-ERENLER",
    "city": "(SAKARYA)"
  },
  {
    "id": 856410691,
    "date": "2023.02.04",
    "time": "07:47:31",
    "lat": 38.6232,
    "lng": 30.7705,
    "depth": 5.4,
    "MD": "-.-",
    "ML": 1.4,
    "Mw": "-.-",
    "location": "DEGIRMENDERE",
    "city": "(AFYONKARAHISAR)"
  },
  {
    "id": 856261644,
    "date": "2023.02.04",
    "time": "07:42:02",
    "lat": 35.8865,
    "lng": 29.3138,
    "depth": 13.8,
    "MD": "-.-",
    "ML": 1.7,
    "Mw": "-.-",
    "location": "AKDENIZ",
    "city": "Bilinmiyor"
  },
  {
    "id": 856202069,
    "date": "2023.02.04",
    "time": "07:40:09",
    "lat": 36.8412,
    "lng": 30.3585,
    "depth": 4.8,
    "MD": "-.-",
    "ML": 1.4,
    "Mw": "-.-",
    "location": "GUZLE-KORKUTELI",
    "city": "(ANTALYA)"
  },
  {
    "id": 854474219,
    "date": "2023.02.04",
    "time": "07:24:16",
    "lat": 40.2847,
    "lng": 27.4903,
    "depth": 6.5,
    "MD": "-.-",
    "ML": 2.6,
    "Mw": "-.-",
    "location": "KEPEKLI-BIGA",
    "city": "(CANAKKALE)"
  },
  {
    "id": 852537869,
    "date": "2023.02.04",
    "time": "07:01:39",
    "lat": 40.6793,
    "lng": 30.4398,
    "depth": 10.8,
    "MD": "-.-",
    "ML": 1.1,
    "Mw": "-.-",
    "location": "KAYALARRESITBEY-ERENLER",
    "city": "(SAKARYA)"
  },
  {
    "id": -34995673,
    "date": "2023.02.04",
    "time": "06:00:11",
    "lat": 38.0188,
    "lng": 27.1703,
    "depth": 6.2,
    "MD": "-.-",
    "ML": 1.5,
    "Mw": "-.-",
    "location": "CILE-MENDERES",
    "city": "(IZMIR)"
  },
  {
    "id": -919460638,
    "date": "2023.02.04",
    "time": "05:39:24",
    "lat": 39.8417,
    "lng": 37.6982,
    "depth": 2.4,
    "MD": "-.-",
    "ML": 3,
    "Mw": "-.-",
    "location": "EKINLI-ZARA",
    "city": "(SIVAS)"
  },
  {
    "id": -920384068,
    "date": "2023.02.04",
    "time": "05:29:52",
    "lat": 37.6245,
    "lng": 28.3257,
    "depth": 9.9,
    "MD": "-.-",
    "ML": 1.2,
    "Mw": "-.-",
    "location": "ALTINTAS-BOZDOGAN",
    "city": "(AYDIN)"
  },
  {
    "id": -921337468,
    "date": "2023.02.04",
    "time": "05:18:27",
    "lat": 38.48,
    "lng": 39.0342,
    "depth": 15.7,
    "MD": "-.-",
    "ML": 1.4,
    "Mw": "-.-",
    "location": "SAKABASI",
    "city": "(ELAZIG)"
  },
  {
    "id": -922320577,
    "date": "2023.02.04",
    "time": "05:06:21",
    "lat": 38.6268,
    "lng": 44.872,
    "depth": 5,
    "MD": "-.-",
    "ML": 3,
    "Mw": "-.-",
    "location": "TURKIYE-IRAN",
    "city": "SINIR"
  },
  {
    "id": -1806249245,
    "date": "2023.02.04",
    "time": "04:42:51",
    "lat": 38.0982,
    "lng": 27.0582,
    "depth": 7.8,
    "MD": "-.-",
    "ML": 1.4,
    "Mw": "-.-",
    "location": "KELER-MENDERES",
    "city": "(IZMIR)"
  },
  {
    "id": 1602316582,
    "date": "2023.02.04",
    "time": "03:58:38",
    "lat": 40.695,
    "lng": 29.8463,
    "depth": 10.4,
    "MD": "-.-",
    "ML": 1.5,
    "Mw": "-.-",
    "location": "NIMETIYE-GOLCUK",
    "city": "(KOCAELI)"
  },
  {
    "id": 1602316517,
    "date": "2023.02.04",
    "time": "03:58:15",
    "lat": 40.6707,
    "lng": 30.4428,
    "depth": 14.9,
    "MD": "-.-",
    "ML": 1.2,
    "Mw": "-.-",
    "location": "KAYALARRESITBEY-ERENLER",
    "city": "(SAKARYA)"
  },
  {
    "id": 1598562910,
    "date": "2023.02.04",
    "time": "03:16:32",
    "lat": 40.5678,
    "lng": 35.7743,
    "depth": 7.9,
    "MD": "-.-",
    "ML": 3.4,
    "Mw": "-.-",
    "location": "KAYABASI",
    "city": "(AMASYA)"
  },
  {
    "id": 713829852,
    "date": "2023.02.04",
    "time": "02:46:50",
    "lat": 39.0277,
    "lng": 28.6313,
    "depth": 7.7,
    "MD": "-.-",
    "ML": 1.4,
    "Mw": "-.-",
    "location": "IMRENLER-DEMIRCI",
    "city": "(MANISA)"
  },
  {
    "id": 712727529,
    "date": "2023.02.04",
    "time": "02:30:36",
    "lat": 37.9075,
    "lng": 32.2568,
    "depth": 4.9,
    "MD": "-.-",
    "ML": 1.1,
    "Mw": "-.-",
    "location": "ULUMUHSINE-SELCUKLU",
    "city": "(KONYA)"
  },
  {
    "id": 712012517,
    "date": "2023.02.04",
    "time": "02:27:29",
    "lat": 37.863,
    "lng": 32.429,
    "depth": 12.3,
    "MD": "-.-",
    "ML": 1.2,
    "Mw": "-.-",
    "location": "KONYA",
    "city": "Bilinmiyor"
  },
  {
    "id": 711923140,
    "date": "2023.02.04",
    "time": "02:24:25",
    "lat": 40.6412,
    "lng": 34.6663,
    "depth": 19.2,
    "MD": "-.-",
    "ML": 1.3,
    "Mw": "-.-",
    "location": "ARSLANKOY",
    "city": "(CORUM)"
  },
  {
    "id": 711923105,
    "date": "2023.02.04",
    "time": "02:24:11",
    "lat": 37.0907,
    "lng": 28.3937,
    "depth": 11.9,
    "MD": "-.-",
    "ML": 0.8,
    "Mw": "-.-",
    "location": "ULA",
    "city": "(MUGLA)"
  },
  {
    "id": 710969828,
    "date": "2023.02.04",
    "time": "02:13:25",
    "lat": 39.0293,
    "lng": 28.6107,
    "depth": 9.8,
    "MD": "-.-",
    "ML": 1.3,
    "Mw": "-.-",
    "location": "YESILOBA-DEMIRCI",
    "city": "(MANISA)"
  },
  {
    "id": 710969766,
    "date": "2023.02.04",
    "time": "02:13:05",
    "lat": 39.0478,
    "lng": 28.6117,
    "depth": 5.3,
    "MD": "-.-",
    "ML": 1.6,
    "Mw": "-.-",
    "location": "YESILOBA-DEMIRCI",
    "city": "(MANISA)"
  },
  {
    "id": 710195261,
    "date": "2023.02.04",
    "time": "02:08:24",
    "lat": 39.0392,
    "lng": 28.6208,
    "depth": 11.6,
    "MD": "-.-",
    "ML": 1.1,
    "Mw": "-.-",
    "location": "YESILOBA-DEMIRCI",
    "city": "(MANISA)"
  },
  {
    "id": 710105822,
    "date": "2023.02.04",
    "time": "02:05:00",
    "lat": 39.3572,
    "lng": 26.2775,
    "depth": 8.4,
    "MD": "-.-",
    "ML": 1.4,
    "Mw": "-.-",
    "location": "MIDILLI",
    "city": "ADASI"
  },
  {
    "id": 710076040,
    "date": "2023.02.04",
    "time": "02:04:09",
    "lat": 38.549,
    "lng": 44.828,
    "depth": 5,
    "MD": "-.-",
    "ML": 2.2,
    "Mw": "-.-",
    "location": "TURKIYE-IRAN",
    "city": "SINIR"
  },
  {
    "id": -172780096,
    "date": "2023.02.04",
    "time": "01:55:53",
    "lat": 39.3743,
    "lng": 26.2355,
    "depth": 5.2,
    "MD": "-.-",
    "ML": 1.4,
    "Mw": "-.-",
    "location": "MIDILLI",
    "city": "ADASI"
  },
  {
    "id": -173673829,
    "date": "2023.02.04",
    "time": "01:46:50",
    "lat": 40.4827,
    "lng": 29.1523,
    "depth": 4.2,
    "MD": "-.-",
    "ML": 1.6,
    "Mw": "-.-",
    "location": "HAYDARIYE-GEMLIK",
    "city": "(BURSA)"
  },
  {
    "id": -173763348,
    "date": "2023.02.04",
    "time": "01:43:09",
    "lat": 38.2822,
    "lng": 38.8243,
    "depth": 5,
    "MD": "-.-",
    "ML": 2.7,
    "Mw": "-.-",
    "location": "AKTARLI-PUTURGE",
    "city": "(MALATYA)"
  },
  {
    "id": -174627234,
    "date": "2023.02.04",
    "time": "01:35:20",
    "lat": 40.6705,
    "lng": 30.4578,
    "depth": 15.3,
    "MD": "-.-",
    "ML": 1.3,
    "Mw": "-.-",
    "location": "KAYALARRESITBEY-ERENLER",
    "city": "(SAKARYA)"
  },
  {
    "id": -177367974,
    "date": "2023.02.04",
    "time": "01:06:31",
    "lat": 37.2102,
    "lng": 36.2645,
    "depth": 5.3,
    "MD": "-.-",
    "ML": 2.1,
    "Mw": "-.-",
    "location": "KARAGEDIK-DUZICI",
    "city": "(OSMANIYE)"
  },
  {
    "id": -1061177662,
    "date": "2023.02.04",
    "time": "00:46:03",
    "lat": 37.8973,
    "lng": 26.9382,
    "depth": 4.7,
    "MD": "-.-",
    "ML": 1.5,
    "Mw": "-.-",
    "location": "KUSADASI",
    "city": "KORFEZI"
  },
  {
    "id": -1698475292,
    "date": "2023.02.03",
    "time": "23:10:35",
    "lat": 37.8973,
    "lng": 27.1115,
    "depth": 6.8,
    "MD": "-.-",
    "ML": 2.1,
    "Mw": "-.-",
    "location": "KUSADASI",
    "city": "KORFEZI"
  },
  {
    "id": -1699279747,
    "date": "2023.02.03",
    "time": "23:04:00",
    "lat": 39.289,
    "lng": 27.722,
    "depth": 10.5,
    "MD": "-.-",
    "ML": 1.7,
    "Mw": "-.-",
    "location": "KOZLUOREN-SOMA",
    "city": "(MANISA)"
  },
  {
    "id": 1711877990,
    "date": "2023.02.03",
    "time": "22:44:17",
    "lat": 37.8205,
    "lng": 27.0168,
    "depth": 4.1,
    "MD": "-.-",
    "ML": 1.6,
    "Mw": "-.-",
    "location": "KUSADASI",
    "city": "KORFEZI"
  },
  {
    "id": 1709911755,
    "date": "2023.02.03",
    "time": "22:20:09",
    "lat": 37.869,
    "lng": 32.3925,
    "depth": 5.7,
    "MD": "-.-",
    "ML": 1.7,
    "Mw": "-.-",
    "location": "KONYA",
    "city": "Bilinmiyor"
  },
  {
    "id": 823540252,
    "date": "2023.02.03",
    "time": "21:37:45",
    "lat": 40.7225,
    "lng": 42.651,
    "depth": 4.9,
    "MD": "-.-",
    "ML": 1.8,
    "Mw": "-.-",
    "location": "GEDIK-GOLE",
    "city": "(ARDAHAN)"
  },
  {
    "id": 823540185,
    "date": "2023.02.03",
    "time": "21:37:20",
    "lat": 40.7125,
    "lng": 27.4567,
    "depth": 12.1,
    "MD": "-.-",
    "ML": 1.2,
    "Mw": "-.-",
    "location": "GUZELKOY",
    "city": "ACIKLARI-TEKIRDAG"
  },
  {
    "id": 821514431,
    "date": "2023.02.03",
    "time": "21:11:33",
    "lat": 39.0152,
    "lng": 29.9163,
    "depth": 10.8,
    "MD": "-.-",
    "ML": 1.9,
    "Mw": "-.-",
    "location": "ALINCIK-ALTINTAS",
    "city": "(KUTAHYA)"
  },
  {
    "id": -62086601,
    "date": "2023.02.03",
    "time": "20:58:40",
    "lat": 37.034,
    "lng": 27.716,
    "depth": 10,
    "MD": "-.-",
    "ML": 2.6,
    "Mw": "-.-",
    "location": "MAZIKOY-BODRUM",
    "city": "(MUGLA)"
  },
  {
    "id": -62324982,
    "date": "2023.02.03",
    "time": "20:50:29",
    "lat": 37.8602,
    "lng": 29.3545,
    "depth": 15.4,
    "MD": "-.-",
    "ML": 1.6,
    "Mw": "-.-",
    "location": "KARAPINAR-CAL",
    "city": "(DENIZLI)"
  },
  {
    "id": -63010214,
    "date": "2023.02.03",
    "time": "20:48:11",
    "lat": 37.851,
    "lng": 29.3397,
    "depth": 9.2,
    "MD": "-.-",
    "ML": 2,
    "Mw": "-.-",
    "location": "KOCABAS-HONAZ",
    "city": "(DENIZLI)"
  },
  {
    "id": -63188865,
    "date": "2023.02.03",
    "time": "20:42:43",
    "lat": 40.389,
    "lng": 27.2272,
    "depth": 9.8,
    "MD": "-.-",
    "ML": 1.8,
    "Mw": "-.-",
    "location": "ORTULUCE-BIGA",
    "city": "(CANAKKALE)"
  },
  {
    "id": -64142176,
    "date": "2023.02.03",
    "time": "20:31:44",
    "lat": 35.6252,
    "lng": 23.344,
    "depth": 6.5,
    "MD": "-.-",
    "ML": 3.5,
    "Mw": "-.-",
    "location": "GIRIT",
    "city": "ADASI"
  },
  {
    "id": 1885762274,
    "date": "2023.02.03",
    "time": "19:36:41",
    "lat": 40.788,
    "lng": 31.022,
    "depth": 8.4,
    "MD": "-.-",
    "ML": 1.8,
    "Mw": "-.-",
    "location": "GOLYAKA",
    "city": "(DUZCE)"
  },
  {
    "id": 1884779081,
    "date": "2023.02.03",
    "time": "19:24:14",
    "lat": 40.667,
    "lng": 30.4465,
    "depth": 10.9,
    "MD": "-.-",
    "ML": 1.2,
    "Mw": "-.-",
    "location": "DEGIRMENDERE-ERENLER",
    "city": "(SAKARYA)"
  },
  {
    "id": 1883915170,
    "date": "2023.02.03",
    "time": "19:16:21",
    "lat": 38.827,
    "lng": 31.1257,
    "depth": 5.2,
    "MD": "-.-",
    "ML": 1.5,
    "Mw": "-.-",
    "location": "TASLIDERE-BOLVADIN",
    "city": "(AFYONKARAHISAR)"
  },
  {
    "id": 1882991587,
    "date": "2023.02.03",
    "time": "19:06:01",
    "lat": 39.6702,
    "lng": 43.0798,
    "depth": 5.2,
    "MD": "-.-",
    "ML": 2,
    "Mw": "-.-",
    "location": "YAKINCA",
    "city": "(AGRI)"
  },
  {
    "id": 1882842792,
    "date": "2023.02.03",
    "time": "19:01:56",
    "lat": 37.2512,
    "lng": 36.3293,
    "depth": 2.5,
    "MD": "-.-",
    "ML": 1,
    "Mw": "-.-",
    "location": "ATALAN-DUZICI",
    "city": "(OSMANIYE)"
  },
  {
    "id": 996232718,
    "date": "2023.02.03",
    "time": "18:10:17",
    "lat": 37.8618,
    "lng": 33.4307,
    "depth": 5,
    "MD": "-.-",
    "ML": 2.5,
    "Mw": "-.-",
    "location": "YENIKENT-KARATAY",
    "city": "(KONYA)"
  },
  {
    "id": 109861094,
    "date": "2023.02.03",
    "time": "17:27:16",
    "lat": 37.372,
    "lng": 29.5493,
    "depth": 7.4,
    "MD": "-.-",
    "ML": 2.1,
    "Mw": "-.-",
    "location": "YAZIR-ACIPAYAM",
    "city": "(DENIZLI)"
  },
  {
    "id": -775855130,
    "date": "2023.02.03",
    "time": "16:45:13",
    "lat": 40.7717,
    "lng": 31.006,
    "depth": 5.9,
    "MD": "-.-",
    "ML": 1.9,
    "Mw": "-.-",
    "location": "ACMA-GOLYAKA",
    "city": "(DUZCE)"
  },
  {
    "id": -775944506,
    "date": "2023.02.03",
    "time": "16:42:10",
    "lat": 41.6033,
    "lng": 41.85,
    "depth": 8.5,
    "MD": "-.-",
    "ML": 3,
    "Mw": "-.-",
    "location": "CAMILI-BORCKA",
    "city": "(ARTVIN)"
  },
  {
    "id": -778655362,
    "date": "2023.02.03",
    "time": "16:14:51",
    "lat": 36.4303,
    "lng": 29.6408,
    "depth": 5.5,
    "MD": "-.-",
    "ML": 2,
    "Mw": "-.-",
    "location": "BELDIBI-KAS",
    "city": "(ANTALYA)"
  },
  {
    "id": -1663388605,
    "date": "2023.02.03",
    "time": "15:44:10",
    "lat": 36.7638,
    "lng": 21.2602,
    "depth": 16.7,
    "MD": "-.-",
    "ML": 4.1,
    "Mw": "4.0",
    "location": "YUNANISTAN",
    "city": "Bilinmiyor"
  },
  {
    "id": -1665295164,
    "date": "2023.02.03",
    "time": "15:22:33",
    "lat": 36.8767,
    "lng": 27.5973,
    "depth": 3.4,
    "MD": "-.-",
    "ML": 2.2,
    "Mw": "-.-",
    "location": "GOKOVA",
    "city": "KORFEZI"
  },
  {
    "id": 1744998532,
    "date": "2023.02.03",
    "time": "14:54:11",
    "lat": 40.8838,
    "lng": 30.3413,
    "depth": 13.6,
    "MD": "-.-",
    "ML": 1.4,
    "Mw": "-.-",
    "location": "KAYRANCIK-ADAPAZARI",
    "city": "(SAKARYA)"
  },
  {
    "id": 1743300539,
    "date": "2023.02.03",
    "time": "14:39:42",
    "lat": 39.242,
    "lng": 29.4108,
    "depth": 5.3,
    "MD": "-.-",
    "ML": 1.5,
    "Mw": "-.-",
    "location": "DUSECEK-EMET",
    "city": "(KUTAHYA)"
  },
  {
    "id": 1743270723,
    "date": "2023.02.03",
    "time": "14:38:38",
    "lat": 36.9935,
    "lng": 37.0473,
    "depth": 9.5,
    "MD": "-.-",
    "ML": 1.4,
    "Mw": "-.-",
    "location": "YASTICA-MUSABEYLI",
    "city": "(KILIS)"
  },
  {
    "id": 1743240865,
    "date": "2023.02.03",
    "time": "14:37:13",
    "lat": 37.2018,
    "lng": 36.3388,
    "depth": 12.9,
    "MD": "-.-",
    "ML": 2,
    "Mw": "-.-",
    "location": "YAZLAMAZLI-DUZICI",
    "city": "(OSMANIYE)"
  },
  {
    "id": 1743181313,
    "date": "2023.02.03",
    "time": "14:35:22",
    "lat": 39.5518,
    "lng": 27.587,
    "depth": 9.3,
    "MD": "-.-",
    "ML": 2.5,
    "Mw": "-.-",
    "location": "BUYUKFINDIK-IVRINDI",
    "city": "(BALIKESIR)"
  },
  {
    "id": 1741393947,
    "date": "2023.02.03",
    "time": "14:17:53",
    "lat": 40.777,
    "lng": 31.0792,
    "depth": 14.1,
    "MD": "-.-",
    "ML": 1.5,
    "Mw": "-.-",
    "location": "GOLORMANI",
    "city": "(DUZCE)"
  },
  {
    "id": 1741244865,
    "date": "2023.02.03",
    "time": "14:12:10",
    "lat": 37.2032,
    "lng": 36.3965,
    "depth": 5.4,
    "MD": "-.-",
    "ML": 1.8,
    "Mw": "-.-",
    "location": "ELLEK-DUZICI",
    "city": "(OSMANIYE)"
  },
  {
    "id": 1741185259,
    "date": "2023.02.03",
    "time": "14:10:07",
    "lat": 36.9387,
    "lng": 36.313,
    "depth": 10.3,
    "MD": "-.-",
    "ML": 1.9,
    "Mw": "-.-",
    "location": "KIZLARCAYI-ERZIN",
    "city": "(HATAY)"
  },
  {
    "id": 1740410694,
    "date": "2023.02.03",
    "time": "14:05:08",
    "lat": 37.1973,
    "lng": 36.4153,
    "depth": 5.2,
    "MD": "-.-",
    "ML": 4.2,
    "Mw": "4.1",
    "location": "YARBASI-DUZICI",
    "city": "(OSMANIYE)"
  },
  {
    "id": 852936833,
    "date": "2023.02.03",
    "time": "13:06:16",
    "lat": 36.1063,
    "lng": 33.5343,
    "depth": 0,
    "MD": "-.-",
    "ML": 1.6,
    "Mw": "-.-",
    "location": "YANISLI-GULNAR",
    "city": "(MERSIN)"
  },
  {
    "id": -30991965,
    "date": "2023.02.03",
    "time": "12:42:00",
    "lat": 36.2308,
    "lng": 33.596,
    "depth": 0,
    "MD": "-.-",
    "ML": 1.3,
    "Mw": "-.-",
    "location": "HIRMANLI-SILIFKE",
    "city": "(MERSIN)"
  },
  {
    "id": -34685889,
    "date": "2023.02.03",
    "time": "12:02:55",
    "lat": 37.5512,
    "lng": 40.4018,
    "depth": 2.7,
    "MD": "-.-",
    "ML": 1.5,
    "Mw": "-.-",
    "location": "YETKINLER-MAZIDAGI",
    "city": "(MARDIN)"
  },
  {
    "id": -920283074,
    "date": "2023.02.03",
    "time": "11:24:11",
    "lat": 39.2565,
    "lng": 30.434,
    "depth": 0,
    "MD": "-.-",
    "ML": 1.7,
    "Mw": "-.-",
    "location": "SALIHLER-SEYITGAZI",
    "city": "(ESKISEHIR)"
  },
  {
    "id": -1805909952,
    "date": "2023.02.03",
    "time": "10:45:02",
    "lat": 39.1533,
    "lng": 29.0815,
    "depth": 10.4,
    "MD": "-.-",
    "ML": 1.6,
    "Mw": "-.-",
    "location": "SOGUT-SIMAV",
    "city": "(KUTAHYA)"
  },
  {
    "id": -1806029110,
    "date": "2023.02.03",
    "time": "10:41:08",
    "lat": 36.3897,
    "lng": 29.015,
    "depth": 36.1,
    "MD": "-.-",
    "ML": 2.2,
    "Mw": "-.-",
    "location": "OLUDENIZ",
    "city": "ACIKLARI-MUGLA"
  },
  {
    "id": -1806833475,
    "date": "2023.02.03",
    "time": "10:35:00",
    "lat": 38.1013,
    "lng": 27.0318,
    "depth": 2.9,
    "MD": "-.-",
    "ML": 1.6,
    "Mw": "-.-",
    "location": "KELER-MENDERES",
    "city": "(IZMIR)"
  },
  {
    "id": 143756210,
    "date": "2023.02.03",
    "time": "09:42:18",
    "lat": 40.6627,
    "lng": 30.4557,
    "depth": 11.9,
    "MD": "-.-",
    "ML": 1.3,
    "Mw": "-.-",
    "location": "DEGIRMENDERE-ERENLER",
    "city": "(SAKARYA)"
  },
  {
    "id": 141164420,
    "date": "2023.02.03",
    "time": "09:18:24",
    "lat": 38.4838,
    "lng": 30.4325,
    "depth": 19.2,
    "MD": "-.-",
    "ML": 0.9,
    "Mw": "-.-",
    "location": "TEKKE-SUHUT",
    "city": "(AFYONKARAHISAR)"
  },
  {
    "id": -743598395,
    "date": "2023.02.03",
    "time": "08:47:55",
    "lat": 36.1177,
    "lng": 27.3603,
    "depth": 16.4,
    "MD": "-.-",
    "ML": 2.1,
    "Mw": "-.-",
    "location": "AKDENIZ",
    "city": "Bilinmiyor"
  },
  {
    "id": -747471316,
    "date": "2023.02.03",
    "time": "08:01:27",
    "lat": 37.8788,
    "lng": 29.4897,
    "depth": 11.8,
    "MD": "-.-",
    "ML": 1.4,
    "Mw": "-.-",
    "location": "ALIKURT-BOZKURT",
    "city": "(DENIZLI)"
  },
  {
    "id": -1630119001,
    "date": "2023.02.03",
    "time": "07:59:48",
    "lat": 40.6988,
    "lng": 36.706,
    "depth": 5,
    "MD": "-.-",
    "ML": 3.7,
    "Mw": "3.7",
    "location": "DOGANYURT-ERBAA",
    "city": "(TOKAT)"
  },
  {
    "id": -1631072413,
    "date": "2023.02.03",
    "time": "07:48:11",
    "lat": 36.0497,
    "lng": 27.4242,
    "depth": 11.7,
    "MD": "-.-",
    "ML": 2.1,
    "Mw": "-.-",
    "location": "AKDENIZ",
    "city": "Bilinmiyor"
  },
  {
    "id": 1775318818,
    "date": "2023.02.03",
    "time": "06:33:40",
    "lat": 39.3972,
    "lng": 26.2047,
    "depth": 1.8,
    "MD": "-.-",
    "ML": 1.5,
    "Mw": "-.-",
    "location": "MIDILLI",
    "city": "ADASI"
  },